[{"id":"f9831517-e87d-427c-a86e-4b0fcd2d55b7","lin":"001-0001-001-01","name":"Pearlridge Center 01","status":"active","site_id":"e5e25e25-600d-4480-aabb-235122607a6c","location":{"type":"Point","coordinates":[-157.941787,21.384867]},"completion_date":"2012-02-19T00:00:00.000Z","meters":[{"oem_id":"081600090204045341821724890","oem":"emw","position":"left","level":"L2"}],"street_address":"1005 Moanalua Road","city":"Aiea","state":"HI","zip_code":96701,"public":true},{"id":"35088ceb-b7ba-45a7-9adb-7b89f3fd7034","lin":"001-0001-001-02","name":"Pearlridge Center 02","status":"needs service","site_id":"e5e25e25-600d-4480-aabb-235122607a6c","location":{"type":"Point","coordinates":[-157.9403953,21.3849825]},"completion_date":"2012-02-19T00:00:00.000Z","meters":[{"oem_id":"0816000902040463967217248402","oem":"emw","position":"left","level":"L2"}],"street_address":"1005 Moanalua Road","city":"Aiea","state":"HI","zip_code":96701,"public":true},{"id":"dda69717-dd49-41d0-9491-915927ebf7c6","lin":"001-0001-001-03","name":"Pearlridge Center 03","status":"active","site_id":"e5e25e25-600d-4480-aabb-235122607a6c","location":{"type":"Point","coordinates":[-157.9401827,21.3825913]},"completion_date":"2013-11-13T00:00:00.000Z","meters":[{"oem_id":"816000920404585054217248901","oem":"emw","position":"left","level":"L2"}],"street_address":"1005 Moanalua Road","city":"Aiea","state":"HI","zip_code":96701,"public":true},{"id":"8aa9db5a-7ac5-4795-983e-725b633edbb3","lin":"001-0001-001-04","name":"Pearlridge Center 04","status":"active","site_id":"e5e25e25-600d-4480-aabb-235122607a6c","location":{"type":"Point","coordinates":[-157.940062,21.3826488]},"completion_date":"2013-11-13T00:00:00.000Z","meters":[{"oem_id":"0816000902040465172217248901","oem":"emw","position":"left","level":"L2"}],"street_address":"1005 Moanalua Road","city":"Aiea","state":"HI","zip_code":96701,"public":true},{"id":"5feac3fc-1160-48eb-bdc4-bf6c9df4bac3","lin":"001-0002-002-01","name":"Kahala Mall 01","status":"active","site_id":"d7b8f70a-ecff-4646-bd2a-6bb188490852","location":{"type":"Point","coordinates":[-157.7863902,21.2778502]},"completion_date":"2012-02-25T00:00:00.000Z","meters":[{"oem_id":"0816000902020457187217011902","oem":"emw","position":"left","level":"L2"}],"street_address":"4211 Waialae Ave","city":"Honolulu","state":"HI","zip_code":96816,"public":true},{"id":"968bef3d-76d1-4033-a547-d570c7cfed6d","lin":"001-0002-002-02","name":"Kahala Mall 02","status":"active","site_id":"d7b8f70a-ecff-4646-bd2a-6bb188490852","location":{"type":"Point","coordinates":[-157.7864224,21.2778327]},"completion_date":"2012-02-25T00:00:00.000Z","meters":[{"oem_id":"0816000902020458712217011902","oem":"emw","position":"left","level":"L2"}],"street_address":"4211 Waialae Ave","city":"Honolulu","state":"HI","zip_code":96816,"public":true},{"id":"ff6b3a18-57c0-48bc-8f27-3dfc4626b251","lin":"001-0003-003-01","name":"Kailua Town Center 01","status":"active","site_id":"3b294d01-cbd5-4d78-95f2-7d57d15c100f","location":{"type":"Point","coordinates":[-157.742756,21.3933605]},"completion_date":"2012-04-30T00:00:00.000Z","meters":[{"oem_id":"0817011000020440285018249702","oem":"emw","position":"left","level":"L2"}],"street_address":"629 Kailua Rd Suite #100","city":"Kailua","state":"HI","zip_code":96734,"public":true},{"id":"8b94ac7b-43e7-427d-819f-36aea44e1046","lin":"001-0003-003-02","name":"Kailua Town Center 02","status":"active","site_id":"3b294d01-cbd5-4d78-95f2-7d57d15c100f","location":{"type":"Point","coordinates":[-157.7423725,21.3932207]},"completion_date":"2012-05-12T00:00:00.000Z","meters":[{"oem_id":"000000011742","oem":"ekm","position":"left","level":"L2"}],"street_address":"629 Kailua Rd Suite #100","city":"Kailua","state":"HI","zip_code":96734,"public":true},{"id":"7706ea14-d22b-4314-8dae-decb68910a04","lin":"001-0004-004-01","name":"Kamehameha Shopping Center 01","status":"active","site_id":"f65193e7-df9c-472e-bdeb-46d6546ea48d","location":{"type":"Point","coordinates":[-157.8678918,21.3364637]},"completion_date":"2012-05-31T00:00:00.000Z","meters":[{"oem_id":"000000010654","oem":"ekm","position":"left","level":"L2"}],"street_address":"1620 N School St","city":"Honolulu","state":"HI","zip_code":96817,"public":false},{"id":"c3a3c467-8422-4f86-bd9e-8b11cb0ef7dc","lin":"001-0005-005-01","name":"Ala Moana Center 01","status":"active","site_id":"31d04b58-66d0-46f9-8840-8b3c68c0eee3","location":{"type":"Point","coordinates":[-157.843483,21.291793]},"completion_date":"2012-05-17T00:00:00.000Z","meters":[{"oem_id":"0816000902040451439217248901","oem":"emw","position":"left","level":"L2"}],"street_address":"1450 Ala Moana Blvd","city":"Honolulu","state":"HI","zip_code":96814,"public":true},{"id":"ae068ced-e8b2-4cdd-8765-b62d6ae43f53","lin":"001-0005-005-02","name":"Ala Moana Center 02","status":"active","site_id":"31d04b58-66d0-46f9-8840-8b3c68c0eee3","location":{"type":"Point","coordinates":[-157.843537,21.291818]},"completion_date":"2012-05-17T00:00:00.000Z","meters":[{"oem_id":"0816000902020456432217011902","oem":"emw","position":"left","level":"L2"}],"street_address":"1450 Ala Moana Blvd","city":"Honolulu","state":"HI","zip_code":96814,"public":true},{"id":"bf2e55fe-5577-4506-84dd-8c8b3adfaca2","lin":"001-0005-005-03","name":"Ala Moana Center 03","status":"active","site_id":"31d04b58-66d0-46f9-8840-8b3c68c0eee3","location":{"type":"Point","coordinates":[-157.843532,21.2901941]},"completion_date":"2013-12-31T00:00:00.000Z","meters":[{"oem_id":"081701100100045460101824910","oem":"emw","position":"left","level":"L2"}],"street_address":"1450 Ala Moana Blvd","city":"Honolulu","state":"HI","zip_code":96814,"public":true},{"id":"69d321d8-2bdb-455e-a298-29ef6be08f16","lin":"001-0005-005-04","name":"Ala Moana Center 04","status":"active","site_id":"31d04b58-66d0-46f9-8840-8b3c68c0eee3","location":{"type":"Point","coordinates":[-157.843532,21.2901441]},"completion_date":"2013-12-31T00:00:00.000Z","meters":[{"oem_id":"0817011001000448036018249102","oem":"emw","position":"left","level":"L2"}],"street_address":"1450 Ala Moana Blvd","city":"Honolulu","state":"HI","zip_code":96814,"public":true},{"id":"31f01540-79f2-4439-baad-da5c08d1a4c0","lin":"001-0005-005-05","name":"Ala Moana Center 05","status":"active","site_id":"31d04b58-66d0-46f9-8840-8b3c68c0eee3","location":{"type":"Point","coordinates":[-157.8480364,21.2966976]},"completion_date":"2013-12-31T00:00:00.000Z","meters":[],"street_address":"1450 Ala Moana Blvd","city":"Honolulu","state":"HI","zip_code":96814,"public":false},{"id":"17e660e7-51cb-4753-81db-72bbfbf6f135","lin":"001-0005-005-06","name":"Ala Moana Center 06","status":"active","site_id":"31d04b58-66d0-46f9-8840-8b3c68c0eee3","location":{"type":"Point","coordinates":[-157.8480364,21.2966976]},"completion_date":"2013-12-31T00:00:00.000Z","meters":[],"street_address":"1450 Ala Moana Blvd","city":"Honolulu","state":"HI","zip_code":96814,"public":false},{"id":"c7a0e69c-e4a5-4e2c-b640-e07c2c3c6691","lin":"001-0006-006-01","name":"Koko Marina Center 01","status":"active","site_id":"e8eba15f-5413-4577-aad1-1538e4c53ffd","location":{"type":"Point","coordinates":[-157.7051437,21.2778164]},"completion_date":"2016-08-31T00:00:00.000Z","meters":[{"oem_id":"0816000902040459148217248901","oem":"emw","position":"left","level":"L2"}],"street_address":"7192 Kalanianaole Hwy","city":"Honolulu","state":"HI","zip_code":96825,"public":true},{"id":"aa06aecd-3c8b-42a5-9174-535089745eb9","lin":"001-0007-007-01","name":"Ward Village 01","status":"active","site_id":"c4e71320-9941-40b6-bcbe-03666ee078f9","location":{"type":"Point","coordinates":[-157.850659,21.2933277]},"completion_date":"2013-02-28T00:00:00.000Z","meters":[{"oem_id":"0817011001000450510018249102","oem":"emw","position":"left","level":"L2"}],"street_address":"1170 Auahi Street","city":"Honolulu","state":"HI","zip_code":96814,"public":true},{"id":"7b69ab2c-1a3c-4199-ae91-b0e9437981f0","lin":"001-0007-007-02","name":"Ward Village 02","status":"needs service","site_id":"c4e71320-9941-40b6-bcbe-03666ee078f9","location":{"type":"Point","coordinates":[-157.850659,21.2933277]},"completion_date":"2013-02-28T00:00:00.000Z","meters":[{"oem_id":"081701100100044574801824910","oem":"emw","position":"left","level":"L2"}],"street_address":"1170 Auahi Street","city":"Honolulu","state":"HI","zip_code":96814,"public":true},{"id":"9aa5f67e-079a-4492-a783-3c131b2a4419","lin":"001-0008-008-01","name":"Dole Cannery 01","status":"active","site_id":"edabd360-36f3-40a6-82df-8001c262a36c","location":{"type":"Point","coordinates":[-157.8704506,21.3155259]},"completion_date":"2013-03-19T00:00:00.000Z","meters":[{"oem_id":"000010002634","oem":"ekm","position":"left","level":"L2"}],"street_address":"735 Iwilei Road","city":"Honolulu","state":"HI","zip_code":96817,"public":false},{"id":"0c66d834-b1ef-4a40-993d-2630b3f975ce","lin":"001-0013-007-01","name":"Ward Entertainment Center 01","status":"active","site_id":"f9c8d994-ace1-4842-9d28-999590cf4216","location":{"type":"Point","coordinates":[-157.8534106,21.2940289]},"completion_date":"2013-10-10T00:00:00.000Z","meters":[{"oem_id":"0816000902040449619217248901","oem":"emw","position":"left","level":"L2"}],"street_address":"1060 Auahi Street","city":"Honolulu","state":"HI","zip_code":96814,"public":true},{"id":"bd3d70c3-0686-427d-9a37-832a5e01ad3b","lin":"001-0013-007-02","name":"Ward Entertainment Center 02","status":"active","site_id":"f9c8d994-ace1-4842-9d28-999590cf4216","location":{"type":"Point","coordinates":[-157.8534106,21.2940289]},"completion_date":"2013-10-10T00:00:00.000Z","meters":[{"oem_id":"000010002617","oem":"ekm","position":"left","level":"L2"}],"street_address":"1060 Auahi Street","city":"Honolulu","state":"HI","zip_code":96814,"public":true},{"id":"717fb6c9-fd61-4666-b2cd-3f9fad86dffe","lin":"001-0014-007-01","name":"Ward Centre 01","status":"active","site_id":"92d6821b-56be-46fc-8ef2-b1fd4fa1f60b","location":{"type":"Point","coordinates":[-157.8480364,21.2966976]},"completion_date":"2013-10-25T00:00:00.000Z","meters":[{"oem_id":"0816000902040442896217248901","oem":"emw","position":"left","level":"L2"}],"street_address":"1200 Ala Moana Blvd","city":"Honolulu","state":"HI","zip_code":96814,"public":true},{"id":"0718419c-6c50-4793-a16a-4127b25b4282","lin":"001-0016-007-01","name":"Ward Warehouse 01","status":"active","site_id":"81cc1931-d5d7-41d4-825f-ce2acf567c3b","location":{"type":"Point","coordinates":[-157.8480364,21.2966976]},"completion_date":"2013-11-15T00:00:00.000Z","meters":[],"street_address":"1050 Ala Moana Blvd","city":"Honolulu","state":"HI","zip_code":96814,"public":false},{"id":"c3d7aecd-ef4c-4f97-825a-1d096c0cecfc","lin":"001-0021-005-01","name":"Whalers Village 01","status":"needs service","site_id":"b059a5ac-c8eb-4dd4-9f5a-8276c7dad6f0","location":{"type":"Point","coordinates":[-156.6941,20.92206]},"completion_date":"2013-12-15T00:00:00.000Z","meters":[{"oem_id":"000000018329","oem":"ekm","position":"left","level":"L2"}],"street_address":"2435 Ka'anapali Parkway, Ste H6","city":"Lahaina","state":"HI","zip_code":96761,"public":true},{"id":"b7218afa-2615-40b5-9dba-00bdb99489cb","lin":"001-0021-005-02","name":"Whalers Village 02","status":"active","site_id":"b059a5ac-c8eb-4dd4-9f5a-8276c7dad6f0","location":{"type":"Point","coordinates":[-156.69398,20.92204]},"completion_date":"2013-12-15T00:00:00.000Z","meters":[{"oem_id":"000300000706","oem":"ekm","position":"left","level":"L2"}],"street_address":"2435 Ka'anapali Parkway, Ste H6","city":"Lahaina","state":"HI","zip_code":96761,"public":true},{"id":"d21accd7-01ea-4367-bc07-28fb475969d4","lin":"001-0060-390-01","name":"Maui Mall 01","status":"needs service","site_id":"03da92a3-36a0-4912-8de1-d276de282877","location":{"type":"Point","coordinates":[-156.4687728,20.8908311]},"completion_date":"2014-11-01T00:00:00.000Z","meters":[{"oem_id":"000300000713","oem":"ekm","position":"left","level":"L2"}],"street_address":"70 East Kaahumanu Ave #B","city":"Kahului","state":"HI","zip_code":96732,"public":true},{"id":"d76438ee-8160-4294-b9e8-52d673a47b34","lin":"001-0060-390-02","name":"Maui Mall 02","status":"active","site_id":"03da92a3-36a0-4912-8de1-d276de282877","location":{"type":"Point","coordinates":[-156.4687728,20.8908311]},"completion_date":"2014-11-01T00:00:00.000Z","meters":[{"oem_id":"000300000712","oem":"ekm","position":"left","level":"L2"}],"street_address":"70 East Kaahumanu Ave #B","city":"Kahului","state":"HI","zip_code":96732,"public":true},{"id":"1463b9bb-2fd2-4845-ab4b-8239d7839ed5","lin":"001-0150-030-01","name":"SALT at Our Kakaako 01","status":"active","site_id":"684c4293-7541-4c14-9aa4-9b4ac281454c","location":{"type":"Point","coordinates":[-157.861644,21.298607]},"completion_date":"2015-12-31T00:00:00.000Z","meters":[{"oem_id":"0816000902040459959217248901","oem":"emw","position":"left","level":"L2"}],"street_address":"333 Keawe Street","city":"Honolulu","state":"HI","zip_code":96813,"public":true},{"id":"2db24dbe-d9ae-4eec-a54a-144678ad4414","lin":"001-0150-030-02","name":"SALT at Our Kakaako 02","status":"active","site_id":"684c4293-7541-4c14-9aa4-9b4ac281454c","location":{"type":"Point","coordinates":[-157.861623,21.298601]},"completion_date":"2015-12-31T00:00:00.000Z","meters":[{"oem_id":"0816000902040460818217248901","oem":"emw","position":"left","level":"L2"}],"street_address":"333 Keawe Street","city":"Honolulu","state":"HI","zip_code":96813,"public":true},{"id":"8bfbd353-a99d-4d28-a3c5-42d225a39547","lin":"001-0188-038-01","name":"Ka Makana Ali'i 01","status":"active","site_id":"cefff572-8b63-488f-8e3b-4e503b524893","location":{"type":"Point","coordinates":[-158.0533951,21.33428807]},"completion_date":"2016-10-01T00:00:00.000Z","meters":[{"oem_id":"000000016933","oem":"ekm","position":"left","level":"L2"}],"street_address":"Renton Road","city":"Kapolei","state":"HI","zip_code":96707,"public":true},{"id":"1f7cfd99-482b-42e7-aa4b-bdf55cd9952c","lin":"001-0188-038-02","name":"Ka Makana Ali'i 02","status":"active","site_id":"cefff572-8b63-488f-8e3b-4e503b524893","location":{"type":"Point","coordinates":[-158.05346,21.334266]},"completion_date":"2016-10-01T00:00:00.000Z","meters":[{"oem_id":"000000014805","oem":"ekm","position":"left","level":"L2"}],"street_address":"Renton Road","city":"Kapolei","state":"HI","zip_code":96707,"public":true},{"id":"24c5206a-5571-4649-87b6-ea622cb971dd","lin":"001-0188-038-03","name":"Ka Makana Ali'i 03","status":"needs service","site_id":"cefff572-8b63-488f-8e3b-4e503b524893","location":{"type":"Point","coordinates":[-158.0514599,21.33347839]},"completion_date":"2016-10-01T00:00:00.000Z","meters":[{"oem_id":"0816000902020459777217011902","oem":"emw","position":"left","level":"L2"}],"street_address":"Renton Road","city":"Kapolei","state":"HI","zip_code":96707,"public":true},{"id":"0052b7eb-e752-4831-901a-c94cda56400c","lin":"001-0188-038-04","name":"Ka Makana Ali'i 04","status":"active","site_id":"cefff572-8b63-488f-8e3b-4e503b524893","location":{"type":"Point","coordinates":[-158.0516056,21.33345224]},"completion_date":"2016-10-01T00:00:00.000Z","meters":[{"oem_id":"0816000902020460429217011902","oem":"emw","position":"left","level":"L2"}],"street_address":"Renton Road","city":"Kapolei","state":"HI","zip_code":96707,"public":true},{"id":"89448aff-b571-45a2-9077-eafd898d26f4","lin":"001-0188-038-05","name":"Ka Makana Ali'i 05","status":"active","site_id":"cefff572-8b63-488f-8e3b-4e503b524893","location":{"type":"Point","coordinates":[-158.0520462,21.3363089]},"completion_date":"2016-10-01T00:00:00.000Z","meters":[{"oem_id":"000300000715","oem":"ekm","position":"left","level":"L2"}],"street_address":"Renton Road","city":"Kapolei","state":"HI","zip_code":96707,"public":true},{"id":"13ee706d-1619-44fd-875e-a286ee417590","lin":"001-0660-003-03","name":"Kailua Town Center 03","status":"active","site_id":"3b294d01-cbd5-4d78-95f2-7d57d15c100f","location":{"type":"Point","coordinates":[-157.742764,21.393328]},"completion_date":"2012-04-30T00:00:00.000Z","meters":[{"oem_id":"0817011000020450522018249702","oem":"emw","position":"left","level":"L2"}],"street_address":"629 Kailua Rd Suite #100","city":"Kailua","state":"HI","zip_code":96734,"public":true},{"id":"c4963680-8d92-4ae8-844b-7033d288bbae","lin":"002-0012-010-01","name":"Pacific Place Garage 01","status":"active","site_id":null,"location":{"type":"Point","coordinates":[-122.405334,37.784911]},"completion_date":"2013-10-03T00:00:00.000Z","meters":[{"oem_id":"000300000949","oem":"ekm","position":"left","level":"L2"}],"street_address":null,"city":null,"state":null,"zip_code":null,"public":true},{"id":"5e70f158-89ed-42a5-80e1-6ef44b8addeb","lin":"002-0017-010-01","name":"Alameda South Shore Center 01","status":"active","site_id":"a31b6d14-1c49-4bc3-90ae-7cc1b236154c","location":{"type":"Point","coordinates":[-122.2531329,37.7568791]},"completion_date":"2013-11-18T00:00:00.000Z","meters":[{"oem_id":"0816000902040452166217248901","oem":"emw","position":"left","level":"L2"}],"street_address":"523 S Shore Center W","city":"Alameda","state":"CA","zip_code":94501,"public":true},{"id":"29118c45-0bb9-44bb-b589-24e1e53e2831","lin":"002-0017-010-02","name":"Alameda South Shore Center 02","status":"active","site_id":"a31b6d14-1c49-4bc3-90ae-7cc1b236154c","location":{"type":"Point","coordinates":[-122.2530739,37.7568537]},"completion_date":"2013-11-18T00:00:00.000Z","meters":[{"oem_id":"0816001000010444468018247102","oem":"emw","position":"left","level":"L2"}],"street_address":"523 S Shore Center W","city":"Alameda","state":"CA","zip_code":94501,"public":true},{"id":"c0d24381-6d05-4712-b0a8-51b6ef5339e2","lin":"002-0024-046-01","name":"Volta HQ 01","status":"active","site_id":"a2e0acab-02db-4ae1-a8b6-18c9adee3654","location":{"type":"Point","coordinates":[-122.40181,37.768249]},"completion_date":"2017-05-15T00:00:00.000Z","meters":[{"oem_id":"0100081547541033462017025085","oem":"emw","position":"left","level":"L2"},{"oem_id":"0816000902040462542217248901","oem":"emw","position":"right","level":"L2"}],"street_address":"155 De Haro St","city":"San Francisco","state":"CA","zip_code":94103,"public":true},{"id":"200fc98b-7a50-4504-ac8b-b0b242ace710","lin":"002-0024-046-02","name":"Volta HQ 02","status":"active","site_id":"a2e0acab-02db-4ae1-a8b6-18c9adee3654","location":{"type":"Point","coordinates":[-122.401788,37.76835]},"completion_date":"2017-05-15T00:00:00.000Z","meters":[{"oem_id":"0100081725190637340117026997","oem":"emw","position":"left","level":"L2"},{"oem_id":"0816000902040460307217248402","oem":"emw","position":"right","level":"L2"}],"street_address":"155 De Haro St","city":"San Francisco","state":"CA","zip_code":94103,"public":false},{"id":"4f552d40-ea08-4702-addf-8feb7a9e4b16","lin":"002-0025-005-01","name":"Stonestown Galleria 01","status":"active","site_id":"2700ca17-7f27-401a-93eb-6dbc0d1622d6","location":{"type":"Point","coordinates":[-122.475991,37.7266407]},"completion_date":"2014-03-31T00:00:00.000Z","meters":[{"oem_id":"0816000902020450995217012001","oem":"emw","position":"left","level":"L2"}],"street_address":"3251 20th Ave","city":"San Francisco","state":"CA","zip_code":94132,"public":true},{"id":"bee7f63f-5069-4f27-9952-c9f60baa73b5","lin":"002-0025-005-02","name":"Stonestown Galleria 02","status":"active","site_id":"2700ca17-7f27-401a-93eb-6dbc0d1622d6","location":{"type":"Point","coordinates":[-122.4759883,37.7266863]},"completion_date":"2014-03-31T00:00:00.000Z","meters":[{"oem_id":"0817011001000441086018249902","oem":"emw","position":"left","level":"L2"}],"street_address":"3251 20th Ave","city":"San Francisco","state":"CA","zip_code":94132,"public":true},{"id":"bd28098e-c331-4d7a-8e46-e2f48240fbf9","lin":"002-0025-005-03","name":"Stonestown Galleria 03","status":"active","site_id":"9b96235c-11ef-41bc-bcb8-73ed1aa7ba8d","location":{"type":"Point","coordinates":[-122.4766695,37.7283728]},"completion_date":"2014-03-31T00:00:00.000Z","meters":[{"oem_id":"000300000487","oem":"ekm","position":"left","level":"L2"}],"street_address":"3251 20th Ave","city":"San Francisco","state":"CA","zip_code":94132,"public":true},{"id":"a176fe56-1c02-4334-9a94-c103074453a9","lin":"002-0025-005-04","name":"Stonestown Galleria 04","status":"active","site_id":"9b96235c-11ef-41bc-bcb8-73ed1aa7ba8d","location":{"type":"Point","coordinates":[-122.4767259,37.7283771]},"completion_date":"2014-03-31T00:00:00.000Z","meters":[{"oem_id":"0817011000010455669018249997","oem":"emw","position":"left","level":"L2"}],"street_address":"3251 20th Ave","city":"San Francisco","state":"CA","zip_code":94132,"public":true},{"id":"9f7a5779-25e6-48f5-b44d-1bd69e8d905d","lin":"002-0027-012-01","name":"Blackhawk Plaza 01","status":"active","site_id":"fd33b88b-41cf-4ac7-b164-124106bdc390","location":{"type":"Point","coordinates":[-121.9186185,37.7997992]},"completion_date":"2014-05-12T00:00:00.000Z","meters":[{"oem_id":"000010002320","oem":"ekm","position":"left","level":"L2"}],"street_address":"3380 Blackhawk Plaza Circle","city":"Danville","state":"CA","zip_code":94506,"public":true},{"id":"c788c11c-17d0-4c1a-844d-84562acf491c","lin":"002-0027-012-02","name":"Blackhawk Plaza 02","status":"active","site_id":"fd33b88b-41cf-4ac7-b164-124106bdc390","location":{"type":"Point","coordinates":[-121.9185863,37.7998278]},"completion_date":"2014-05-12T00:00:00.000Z","meters":[{"oem_id":"000010002616","oem":"ekm","position":"left","level":"L2"}],"street_address":"3380 Blackhawk Plaza Circle","city":"Danville","state":"CA","zip_code":94506,"public":true},{"id":"b2065430-bde5-460b-a002-c5ffe1b4ee32","lin":"002-0030-033-01","name":"Eastridge Center 01","status":"active","site_id":"f488c524-359a-4121-98a3-5c79c4b2a33d","location":{"type":"Point","coordinates":[-121.8137616,37.3266379]},"completion_date":"2014-05-31T00:00:00.000Z","meters":[{"oem_id":"0816000902040452149018241902","oem":"emw","position":"left","level":"L2"}],"street_address":"2200 Eastridge Loop #2062","city":"San Jose","state":"CA","zip_code":95122,"public":true},{"id":"47725db8-be9f-4a9e-912d-8312a1bffab6","lin":"002-0030-033-02","name":"Eastridge Center 02","status":"active","site_id":"f488c524-359a-4121-98a3-5c79c4b2a33d","location":{"type":"Point","coordinates":[-121.8137938,37.3266145]},"completion_date":"2014-05-31T00:00:00.000Z","meters":[{"oem_id":"0816000902040452385018241902","oem":"emw","position":"left","level":"L2"}],"street_address":"2200 Eastridge Loop #2062","city":"San Jose","state":"CA","zip_code":95122,"public":true},{"id":"2592a989-4b29-4480-8138-23517690a5c1","lin":"002-0030-033-05","name":"Eastridge Center 05","status":"active","site_id":"93ab8d66-0eeb-43e6-8829-2c1efb2a8419","location":{"type":"Point","coordinates":[-121.813544,37.324119]},"completion_date":"2018-01-29T00:00:00.000Z","meters":[{"oem_id":"0100081816280148500617023745","oem":"emw","position":"left","level":"L2"}],"street_address":"2200 Eastridge loop","city":"San Jose","state":"CA","zip_code":95122,"public":true},{"id":"022a1854-7c4c-4fe6-8500-ecd40820206a","lin":"002-0030-033-06","name":"Eastridge Center 06","status":"active","site_id":"93ab8d66-0eeb-43e6-8829-2c1efb2a8419","location":{"type":"Point","coordinates":[-121.813496,37.324057]},"completion_date":"2018-01-29T00:00:00.000Z","meters":[{"oem_id":"0100081415320637342517023689","oem":"emw","position":"left","level":"L2"}],"street_address":"2200 Eastridge loop","city":"San Jose","state":"CA","zip_code":95122,"public":true},{"id":"26daf78e-6095-46f5-8390-c93b0d644c5a","lin":"002-0058-016-01","name":"Serra Shopping Center 01","status":"active","site_id":"d8097b89-34db-450e-959d-a9f7012f0ba4","location":{"type":"Point","coordinates":[-122.465588,37.6742103]},"completion_date":"2015-02-26T00:00:00.000Z","meters":[{"oem_id":"000000014818","oem":"ekm","position":"left","level":"L2"}],"street_address":"4945 Junipero Serra Blvd.","city":"Colma","state":"CA","zip_code":94014,"public":true},{"id":"48a5bc51-bddd-4394-af16-94dd3b51007d","lin":"002-0058-016-02","name":"Serra Shopping Center 02","status":"active","site_id":"d8097b89-34db-450e-959d-a9f7012f0ba4","location":{"type":"Point","coordinates":[-122.4654955,37.6741094]},"completion_date":"2015-02-26T00:00:00.000Z","meters":[{"oem_id":"000000014802","oem":"ekm","position":"left","level":"L2"}],"street_address":"4945 Junipero Serra Blvd.","city":"Colma","state":"CA","zip_code":94014,"public":true},{"id":"7ada84e1-6b05-469c-b925-f0752169323d","lin":"002-0059-017-01","name":"Pacific Commons Shopping Center 01","status":"active","site_id":"45ed0713-d9d5-4dbd-9e5d-49b5c63d44fe","location":{"type":"Point","coordinates":[-121.9750093,37.5035543]},"completion_date":"2015-01-18T00:00:00.000Z","meters":[{"oem_id":"0816000902040436079317240902","oem":"emw","position":"left","level":"L2"}],"street_address":"43917 Pacific Commons Blvd","city":"Fremont","state":"CA","zip_code":94538,"public":true},{"id":"dc5c9087-425a-4ee2-a6c1-cacd1ee917ee","lin":"002-0059-017-02","name":"Pacific Commons Shopping Center 02","status":"active","site_id":"45ed0713-d9d5-4dbd-9e5d-49b5c63d44fe","location":{"type":"Point","coordinates":[-121.9749463,37.5034649]},"completion_date":"2015-01-18T00:00:00.000Z","meters":[{"oem_id":"0816000902040435550317240902","oem":"emw","position":"left","level":"L2"}],"street_address":"43917 Pacific Commons Blvd","city":"Fremont","state":"CA","zip_code":94538,"public":true},{"id":"b3d796e1-836f-47af-aa3c-002b62b912c2","lin":"002-0059-017-03","name":"Pacific Commons Shopping Center 03","status":"active","site_id":"45ed0713-d9d5-4dbd-9e5d-49b5c63d44fe","location":{"type":"Point","coordinates":[-121.969716,37.5053981]},"completion_date":"2015-11-20T00:00:00.000Z","meters":[{"oem_id":"000000017421","oem":"ekm","position":"left","level":"L2"}],"street_address":"43917 Pacific Commons Blvd","city":"Fremont","state":"CA","zip_code":94538,"public":true},{"id":"3af1ec2e-b751-4495-8801-3e43e9b7e4e5","lin":"002-0059-017-04","name":"Pacific Commons Shopping Center 04","status":"active","site_id":"45ed0713-d9d5-4dbd-9e5d-49b5c63d44fe","location":{"type":"Point","coordinates":[-121.9698501,37.5054108]},"completion_date":"2015-11-20T00:00:00.000Z","meters":[{"oem_id":"000000017177","oem":"ekm","position":"left","level":"L2"}],"street_address":"43917 Pacific Commons Blvd","city":"Fremont","state":"CA","zip_code":94538,"public":true},{"id":"6e272447-ce64-4072-8974-c97dba5f2308","lin":"002-0066-020-01","name":"Southland Mall 01","status":"active","site_id":"f718b806-122d-48e3-b5ec-915c535a1459","location":{"type":"Point","coordinates":[-122.1019945,37.6517746]},"completion_date":"2015-06-16T00:00:00.000Z","meters":[{"oem_id":"000000017172","oem":"ekm","position":"left","level":"L2"}],"street_address":"1 Southland Mall Drive","city":"Hayward","state":"CA","zip_code":94545,"public":true},{"id":"ef61b506-cc53-4ff6-a7f8-9317844402ce","lin":"002-0066-020-02","name":"Southland Mall 02","status":"active","site_id":"f718b806-122d-48e3-b5ec-915c535a1459","location":{"type":"Point","coordinates":[-122.1020293,37.6518245]},"completion_date":"2015-06-16T00:00:00.000Z","meters":[{"oem_id":"000000017161","oem":"ekm","position":"left","level":"L2"}],"street_address":"1 Southland Mall Drive","city":"Hayward","state":"CA","zip_code":94545,"public":true},{"id":"9d7e3376-8a08-460c-9bba-e37ed7589388","lin":"002-0066-020-03","name":"Southland Mall 03","status":"active","site_id":"f0027cc2-5edb-4ac0-a4f9-90e7ac15ef66","location":{"type":"Point","coordinates":[-122.104773,37.650871]},"completion_date":"2017-09-07T00:00:00.000Z","meters":[{"oem_id":"0816000902040463465217248901","oem":"emw","position":"left","level":"L2"}],"street_address":"1 Southland Mall","city":"Hayward","state":"CA","zip_code":94545,"public":true},{"id":"58d59b55-6394-47ad-b443-34e499593e9d","lin":"002-0066-020-04","name":"Southland Mall 04","status":"active","site_id":"f0027cc2-5edb-4ac0-a4f9-90e7ac15ef66","location":{"type":"Point","coordinates":[-122.1048,37.650909]},"completion_date":"2017-09-07T00:00:00.000Z","meters":[{"oem_id":"0816000902040450837217249001","oem":"emw","position":"left","level":"L2"}],"street_address":"1 Southland Mall","city":"Hayward","state":"CA","zip_code":94545,"public":true},{"id":"75e0e338-5180-4d0f-97cc-215c989512ed","lin":"002-0067-020-01","name":"Newpark Mall 01","status":"active","site_id":"3cdb9093-5bcd-456e-87d7-7493f0ade8ce","location":{"type":"Point","coordinates":[-122.0002368,37.5267186]},"completion_date":"2015-03-31T00:00:00.000Z","meters":[{"oem_id":"000010000718","oem":"ekm","position":"left","level":"L2"}],"street_address":"200 Newpark Mall","city":"Newark","state":"CA","zip_code":94560,"public":true},{"id":"a682601b-bdca-4985-ac6b-744673d17c42","lin":"002-0067-020-02","name":"Newpark Mall 02","status":"needs service","site_id":"3cdb9093-5bcd-456e-87d7-7493f0ade8ce","location":{"type":"Point","coordinates":[-122.0001778,37.5267016]},"completion_date":"2015-03-31T00:00:00.000Z","meters":[{"oem_id":"000000014797","oem":"ekm","position":"left","level":"L2"}],"street_address":"200 Newpark Mall","city":"Newark","state":"CA","zip_code":94560,"public":true},{"id":"98df651a-3f15-4795-bc64-bc522b644dd7","lin":"002-0072-014-01","name":"Powell Street Plaza 01","status":"active","site_id":"ac172347-5100-4fe2-b6cc-5c796856d165","location":{"type":"Point","coordinates":[-122.294713,37.836665]},"completion_date":"2016-12-30T00:00:00.000Z","meters":[{"oem_id":"000000017411","oem":"ekm","position":"left","level":"L2"}],"street_address":"5795 Christie Ave","city":"Emeryville","state":"CA","zip_code":94608,"public":true},{"id":"53162d3b-bff3-4d8f-bf1e-a68ceee21d7c","lin":"002-0072-014-02","name":"Powell Street Plaza 02","status":"active","site_id":"ac172347-5100-4fe2-b6cc-5c796856d165","location":{"type":"Point","coordinates":[-122.294537,37.836704]},"completion_date":"2016-12-30T00:00:00.000Z","meters":[{"oem_id":"000000017156","oem":"ekm","position":"left","level":"L2"}],"street_address":"5795 Christie Ave","city":"Emeryville","state":"CA","zip_code":94608,"public":true},{"id":"fe536311-92e5-47bb-afbf-e5a2e2d5e784","lin":"002-0073-014-01","name":"Sequoia Station 01","status":"active","site_id":"5149ca95-a2ba-415c-9919-4f56e855a0eb","location":{"type":"Point","coordinates":[-122.2312823,37.4848685]},"completion_date":"2015-12-14T00:00:00.000Z","meters":[{"oem_id":"0817011000010457327018249997","oem":"emw","position":"left","level":"L2"}],"street_address":"1071 El Camino","city":"Redwood City","state":"CA","zip_code":94063,"public":true},{"id":"7fc499e4-bb26-492d-bce3-59b86c41aa40","lin":"002-0073-014-02","name":"Sequoia Station 02","status":"active","site_id":"5149ca95-a2ba-415c-9919-4f56e855a0eb","location":{"type":"Point","coordinates":[-122.2311643,37.4847833]},"completion_date":"2015-12-14T00:00:00.000Z","meters":[{"oem_id":"000000017423","oem":"ekm","position":"left","level":"L2"}],"street_address":"1071 El Camino","city":"Redwood City","state":"CA","zip_code":94063,"public":true},{"id":"5a0c7873-ca4c-43b1-bc2e-b5fe7e62a24b","lin":"002-0075-014-01","name":"Ygnacio Plaza Shopping Center 01","status":"active","site_id":"c6f39ec0-39bc-429a-b74b-60c90bce5698","location":{"type":"Point","coordinates":[-122.0371346,37.9179102]},"completion_date":"2015-09-10T00:00:00.000Z","meters":[{"oem_id":"000000017200","oem":"ekm","position":"left","level":"L2"}],"street_address":"1881 Ygnacio Valley Road","city":"Walnut Creek","state":"CA","zip_code":94598,"public":true},{"id":"4517fd0a-ebad-43d1-991e-0b29a36520fb","lin":"002-0075-014-02","name":"Ygnacio Plaza Shopping Center 02","status":"active","site_id":"c6f39ec0-39bc-429a-b74b-60c90bce5698","location":{"type":"Point","coordinates":[-122.037203,37.917944]},"completion_date":"2015-09-10T00:00:00.000Z","meters":[{"oem_id":"0816000902040456502217248901","oem":"emw","position":"left","level":"L2"}],"street_address":"1881 Ygnacio Valley Road","city":"Walnut Creek","state":"CA","zip_code":94598,"public":true},{"id":"e790562d-05d3-4542-8d4d-38ab4c95aeba","lin":"002-0083-014-01","name":"Loehmanns Plaza 01","status":"active","site_id":"a2bd3ec2-3f01-4fb9-b538-569a35647390","location":{"type":"Point","coordinates":[-122.042287,37.34045]},"completion_date":"2017-03-06T00:00:00.000Z","meters":[{"oem_id":"0100081230330437351616029348","oem":"emw","position":"left","level":"L2"}],"street_address":"1601 Hollenbeck Ave","city":"Sunnyvale","state":"CA","zip_code":94087,"public":true},{"id":"2b40a6e6-ed2c-4a0a-9d2a-5e3a39edd265","lin":"002-0083-014-02","name":"Loehmanns Plaza 02","status":"active","site_id":"a2bd3ec2-3f01-4fb9-b538-569a35647390","location":{"type":"Point","coordinates":[-122.04229,37.340333]},"completion_date":"2017-03-06T00:00:00.000Z","meters":[{"oem_id":"0100081453110437351816024711","oem":"emw","position":"left","level":"L2"}],"street_address":"1601 Hollenbeck Ave","city":"Sunnyvale","state":"CA","zip_code":94087,"public":true},{"id":"763e6c84-e9e2-4f30-9393-d735617c4053","lin":"002-0084-014-01","name":"Mariposa Shopping Center 01","status":"active","site_id":"b205589d-af88-4ab4-a25c-e6fdf85c247b","location":{"type":"Point","coordinates":[-121.974759,37.338419]},"completion_date":"2017-03-06T00:00:00.000Z","meters":[{"oem_id":"0100081655430437351816027754","oem":"emw","position":"left","level":"L2"}],"street_address":"2760 Homestead Road","city":"Santa Clara","state":"CA","zip_code":95051,"public":true},{"id":"46e463d8-14e7-453b-987c-410ea95146c8","lin":"002-0084-014-02","name":"Mariposa Shopping Center 02","status":"active","site_id":"b205589d-af88-4ab4-a25c-e6fdf85c247b","location":{"type":"Point","coordinates":[-121.974708,37.338436]},"completion_date":"2017-03-06T00:00:00.000Z","meters":[{"oem_id":"0817011000010451168018249997","oem":"emw","position":"left","level":"L2"}],"street_address":"2760 Homestead Road","city":"Santa Clara","state":"CA","zip_code":95051,"public":true},{"id":"cf1571c2-fa47-44ff-b713-6101b62d7d5c","lin":"002-0114-286-01","name":"Crissy Field 01","status":"active","site_id":"3b92c2c6-387a-4c6c-ae27-f9831fd984d7","location":{"type":"Point","coordinates":[-122.4494492,37.8060998]},"completion_date":"2015-06-19T00:00:00.000Z","meters":[{"oem_id":"000000016245","oem":"ekm","position":"left","level":"L2"},{"oem_id":"000000018313","oem":"ekm","position":"right","level":"L2"}],"street_address":"1199 East Beach, Presidio","city":"san francisco","state":"CA","zip_code":94129,"public":true},{"id":"47358645-8a24-46c8-ae4d-19c169a54232","lin":"002-0115-169-01","name":"Vintage Oaks at Novato 01","status":"active","site_id":"87cca6bf-fd93-4e64-938a-36075718ff40","location":{"type":"Point","coordinates":[-122.5519136,38.0882165]},"completion_date":"2015-10-01T00:00:00.000Z","meters":[{"oem_id":"000000017413","oem":"ekm","position":"left","level":"L2"}],"street_address":"300 Vintage Way","city":"Novato","state":"CA","zip_code":94945,"public":true},{"id":"a2e9f586-78c3-4b76-bc08-cf612382ba06","lin":"002-0115-169-02","name":"Vintage Oaks at Novato 02","status":"active","site_id":"87cca6bf-fd93-4e64-938a-36075718ff40","location":{"type":"Point","coordinates":[-122.551868,38.0881701]},"completion_date":"2015-10-01T00:00:00.000Z","meters":[{"oem_id":"000000016965","oem":"ekm","position":"left","level":"L2"}],"street_address":"300 Vintage Way","city":"Novato","state":"CA","zip_code":94945,"public":true},{"id":"a22535d2-b9cb-4ee7-b788-1b09cb4bcf2a","lin":"002-0156-015-01","name":"Arden Fair 01","status":"active","site_id":"d2ba7c2d-da02-4c8f-b2f5-5cec37d9a959","location":{"type":"Point","coordinates":[-121.425589,38.599903]},"completion_date":"2017-05-19T00:00:00.000Z","meters":[{"oem_id":"0100081756461033462417021182","oem":"emw","position":"left","level":"L2"}],"street_address":"1701 Arden Way","city":"Sacramento","state":"CA","zip_code":95815,"public":true},{"id":"190affce-69c6-4a90-9492-b303219fa33f","lin":"002-0156-015-02","name":"Arden Fair 02","status":"active","site_id":"d2ba7c2d-da02-4c8f-b2f5-5cec37d9a959","location":{"type":"Point","coordinates":[-121.425542,38.599886]},"completion_date":"2017-05-19T00:00:00.000Z","meters":[{"oem_id":"0100081535120637340117022122","oem":"emw","position":"left","level":"L2"}],"street_address":"1701 Arden Way","city":"Sacramento","state":"CA","zip_code":95815,"public":true},{"id":"a2df3948-a847-40ab-b782-12d7c8baa9d0","lin":"002-0158-015-01","name":"Capitola Mall 01","status":"active","site_id":"13e32dd6-36d9-407e-b7bc-ef6a16b3d8b0","location":{"type":"Point","coordinates":[-121.96903,36.977083]},"completion_date":"2017-04-12T00:00:00.000Z","meters":[{"oem_id":"0100081137430437351716022668","oem":"emw","position":"right","level":"L2"}],"street_address":"1865 41st Avenue","city":"Capitola","state":"CA","zip_code":95010,"public":true},{"id":"9633acaf-2f07-4271-8082-aadeb30ee082","lin":"002-0158-015-02","name":"Capitola Mall 02","status":"active","site_id":"13e32dd6-36d9-407e-b7bc-ef6a16b3d8b0","location":{"type":"Point","coordinates":[-121.968905,36.977173]},"completion_date":"2017-04-12T00:00:00.000Z","meters":[{"oem_id":"000010005083","oem":"ekm","position":"left","level":"L2"}],"street_address":"1865 41st Avenue","city":"Capitola","state":"CA","zip_code":95010,"public":true},{"id":"e173821a-8f9e-4381-8c42-0ac7188c2b49","lin":"002-0159-015-03","name":"Eastridge Center 03","status":"active","site_id":"7bf73966-3f6d-430b-8576-dc63de36a8bc","location":{"type":"Point","coordinates":[-121.814631,37.32656]},"completion_date":"2018-01-17T00:00:00.000Z","meters":[{"oem_id":"0100081605590148501217025461","oem":"emw","position":"left","level":"L2"}],"street_address":"2210 Tully Road","city":"San Jose","state":"CA","zip_code":95122,"public":true},{"id":"38686b9b-a0a3-4629-8db8-0cb7060c8361","lin":"002-0159-015-04","name":"Eastridge Center 04","status":"active","site_id":"7bf73966-3f6d-430b-8576-dc63de36a8bc","location":{"type":"Point","coordinates":[-121.814675,37.326533]},"completion_date":"2018-01-17T00:00:00.000Z","meters":[{"oem_id":"0100080919351053462017028630","oem":"emw","position":"left","level":"L2"}],"street_address":"2210 Tully Road","city":"San Jose","state":"CA","zip_code":95122,"public":true},{"id":"845047a1-59d3-42f9-aff7-f3e67e59ef65","lin":"002-0160-015-01","name":"Westfield Galleria at Roseville 01","status":"active","site_id":"03c57938-5cc4-4eb3-bbc7-923eb1e75ad5","location":{"type":"Point","coordinates":[-121.269015,38.775664]},"completion_date":"2017-09-10T00:00:00.000Z","meters":[{"oem_id":"0100081544240637342617022038","oem":"emw","position":"left","level":"L2"}],"street_address":"1197 Galleria Blvd","city":"Roseville","state":"CA","zip_code":95678,"public":true},{"id":"4e44225e-4a2a-4713-b96d-fde2ccdd521e","lin":"002-0160-015-02","name":"Westfield Galleria at Roseville 02","status":"active","site_id":"03c57938-5cc4-4eb3-bbc7-923eb1e75ad5","location":{"type":"Point","coordinates":[-121.269109,38.775452]},"completion_date":"2017-09-10T00:00:00.000Z","meters":[{"oem_id":"0100080817210437352016028772","oem":"emw","position":"left","level":"L2"}],"street_address":"1197 Galleria Blvd","city":"Roseville","state":"CA","zip_code":95678,"public":true},{"id":"945067bf-f304-43c7-93c3-1208d3dd5c3f","lin":"002-0162-015-01","name":"Solano Town Center 01","status":"active","site_id":"4051e0f5-8dec-4e6b-a2e7-87f089a966e3","location":{"type":"Point","coordinates":[-122.055144,38.259248]},"completion_date":"2017-03-10T00:00:00.000Z","meters":[{"oem_id":"0100081711551033460517028459","oem":"emw","position":"left","level":"L2"}],"street_address":"1544 Travis Blvd","city":"Fairfield","state":"CA","zip_code":94533,"public":true},{"id":"1132fa38-f1e5-4268-8b3a-ca90b795caf6","lin":"002-0162-015-02","name":"Solano Town Center 02","status":"active","site_id":"4051e0f5-8dec-4e6b-a2e7-87f089a966e3","location":{"type":"Point","coordinates":[-122.055206,38.259248]},"completion_date":"2017-03-10T00:00:00.000Z","meters":[{"oem_id":"0100080920341033460617025898","oem":"emw","position":"left","level":"L2"}],"street_address":"1544 Travis Blvd","city":"Fairfield","state":"CA","zip_code":94533,"public":true},{"id":"1473dd0f-2ea7-46b7-af4f-486da9ede3d7","lin":"002-0163-015-01","name":"Stoneridge Shopping Center 01","status":"active","site_id":"94a98e28-c551-4818-ad79-69476d7ff1af","location":{"type":"Point","coordinates":[-121.928015,37.693284]},"completion_date":"2017-05-01T00:00:00.000Z","meters":[{"oem_id":"0100081614470637340117025877","oem":"emw","position":"left","level":"L2"}],"street_address":"1300 Stoneridge Mall Rd","city":"Pleasanton","state":"CA","zip_code":94588,"public":true},{"id":"6ddce7c0-9dbe-4f18-a5aa-d55689ea4818","lin":"002-0163-015-02","name":"Stoneridge Shopping Center 02","status":"active","site_id":"94a98e28-c551-4818-ad79-69476d7ff1af","location":{"type":"Point","coordinates":[-121.928094,37.693276]},"completion_date":"2017-05-01T00:00:00.000Z","meters":[{"oem_id":"0100081430200637340317021375","oem":"emw","position":"left","level":"L2"}],"street_address":"1300 Stoneridge Mall Rd","city":"Pleasanton","state":"CA","zip_code":94588,"public":true},{"id":"8a849fcf-bb2d-4c77-8ec6-11e26b83f555","lin":"002-0163-015-03","name":"Stoneridge Shopping Center 03","status":"active","site_id":"bf1cab55-7f3d-4c02-9ee2-8fe3b25904b7","location":{"type":"Point","coordinates":[-121.929148,37.693328]},"completion_date":"2017-05-01T00:00:00.000Z","meters":[{"oem_id":"0100081758131033460617029857","oem":"emw","position":"left","level":"L2"}],"street_address":"1300 Stoneridge Mall Rd","city":"Pleasanton","state":"CA","zip_code":94588,"public":true},{"id":"5e074ba3-6331-4dc8-9e8b-703de9755088","lin":"002-0163-015-04","name":"Stoneridge Shopping Center 04","status":"active","site_id":"bf1cab55-7f3d-4c02-9ee2-8fe3b25904b7","location":{"type":"Point","coordinates":[-121.929172,37.693384]},"completion_date":"2017-05-01T00:00:00.000Z","meters":[{"oem_id":"0100081628180637340117022490","oem":"emw","position":"left","level":"L2"}],"street_address":"1300 Stoneridge Mall Rd","city":"Pleasanton","state":"CA","zip_code":94588,"public":true},{"id":"cea730e2-d4c9-43d6-998a-7210dad84586","lin":"002-0166-015-01","name":"Westfield Valley Fair 01","status":"active","site_id":"b6ebba28-177c-4e9c-92bf-36e2448319d9","location":{"type":"Point","coordinates":[-121.942806,37.324505]},"completion_date":"2018-02-13T00:00:00.000Z","meters":[{"oem_id":"0816000902040464922217249601","oem":"emw","position":"left","level":"L2"}],"street_address":"2801 Stevens Creek Blvd","city":"Santa Clara","state":"CA","zip_code":95050,"public":true},{"id":"77167cf5-c8b6-447e-a885-c9a867f8bea2","lin":"002-0166-015-02","name":"Westfield Valley Fair 02","status":"active","site_id":"b6ebba28-177c-4e9c-92bf-36e2448319d9","location":{"type":"Point","coordinates":[-121.942768,37.324543]},"completion_date":"2018-02-13T00:00:00.000Z","meters":[{"oem_id":"0816000902040458665217249801","oem":"emw","position":"left","level":"L2"}],"street_address":"2801 Stevens Creek Blvd","city":"Santa Clara","state":"CA","zip_code":95050,"public":true},{"id":"1cadc836-b8d0-4205-98a6-27bd4d748d73","lin":"002-0166-015-03","name":"Westfield Valley Fair 03","status":"active","site_id":"b6ebba28-177c-4e9c-92bf-36e2448319d9","location":{"type":"Point","coordinates":[-121.942274,37.324975]},"completion_date":"2018-02-13T00:00:00.000Z","meters":[{"oem_id":"0816000902040453212217249902","oem":"emw","position":"left","level":"L2"}],"street_address":"2801 Stevens Creek Blvd","city":"Santa Clara","state":"CA","zip_code":95050,"public":true},{"id":"416cc7ee-3940-48b6-9abd-6618b5f3712f","lin":"002-0166-015-04","name":"Westfield Valley Fair 04","status":"active","site_id":"b6ebba28-177c-4e9c-92bf-36e2448319d9","location":{"type":"Point","coordinates":[-121.942253,37.324996]},"completion_date":"2018-02-13T00:00:00.000Z","meters":[{"oem_id":"0816000902040433761317240902","oem":"emw","position":"left","level":"L2"}],"street_address":"2801 Stevens Creek Blvd","city":"Santa Clara","state":"CA","zip_code":95050,"public":true},{"id":"62318aa0-b0cd-4b53-95a2-b69ccafd365f","lin":"002-0167-015-01","name":"The Village at Corte Madera 01","status":"active","site_id":"a8d3b775-da34-4c91-9ef9-56593443e213","location":{"type":"Point","coordinates":[-122.513046,37.928095]},"completion_date":"2016-11-28T00:00:00.000Z","meters":[{"oem_id":"0816000902040450248317246702","oem":"emw","position":"left","level":"L2"}],"street_address":"1400 Redwood Highway","city":"Corte Madera","state":"CA","zip_code":94925,"public":true},{"id":"da1e7f8a-cd56-4a75-b7dd-e44446b6b7b6","lin":"002-0167-015-02","name":"The Village at Corte Madera 02","status":"active","site_id":"a8d3b775-da34-4c91-9ef9-56593443e213","location":{"type":"Point","coordinates":[-122.513013,37.928027]},"completion_date":"2016-11-28T00:00:00.000Z","meters":[{"oem_id":"0814071859461053442816022363","oem":"emw","position":"left","level":"L2"}],"street_address":"1400 Redwood Highway","city":"Corte Madera","state":"CA","zip_code":94925,"public":true},{"id":"2afe96bf-913c-4c30-8f45-3860f11354a3","lin":"002-0167-015-03","name":"The Village at Corte Madera 03","status":"active","site_id":"a8d3b775-da34-4c91-9ef9-56593443e213","location":{"type":"Point","coordinates":[-122.512858,37.927925]},"completion_date":"2016-11-28T00:00:00.000Z","meters":[{"oem_id":"0816000902020431530217012101","oem":"emw","position":"left","level":"L2"}],"street_address":"1400 Redwood Highway","city":"Corte Madera","state":"CA","zip_code":94925,"public":true},{"id":"188e15b3-a17c-4e48-b146-c9a423d6e34c","lin":"002-0167-015-04","name":"The Village at Corte Madera 04","status":"active","site_id":"a8d3b775-da34-4c91-9ef9-56593443e213","location":{"type":"Point","coordinates":[-122.512793,37.927891]},"completion_date":"2016-11-28T00:00:00.000Z","meters":[{"oem_id":"081407205033015339116025522","oem":"emw","position":"left","level":"L2"}],"street_address":"1400 Redwood Highway","city":"Corte Madera","state":"CA","zip_code":94925,"public":true},{"id":"b0e108d8-0fdd-4add-96af-18197ca1e13b","lin":"002-0170-019-01","name":"Bay Street 01","status":"active","site_id":"7bcf236a-9fb0-47fd-bc5f-19d70ff0d889","location":{"type":"Point","coordinates":[-122.291447,37.834303]},"completion_date":"2017-01-06T00:00:00.000Z","meters":[{"oem_id":"000000016249","oem":"ekm","position":"left","level":"L2"}],"street_address":"5616 Bay St","city":"Emeryville","state":"CA","zip_code":94608,"public":true},{"id":"5b518e7a-9390-4e56-aaae-bdeba02590ad","lin":"002-0170-019-02","name":"Bay Street 02","status":"active","site_id":"7bcf236a-9fb0-47fd-bc5f-19d70ff0d889","location":{"type":"Point","coordinates":[-122.291442,37.834248]},"completion_date":"2017-01-06T00:00:00.000Z","meters":[{"oem_id":"000000017157","oem":"ekm","position":"left","level":"L2"}],"street_address":"5616 Bay St","city":"Emeryville","state":"CA","zip_code":94608,"public":true},{"id":"b7a5a62f-e60a-4899-8793-cd9e6f9bb8d8","lin":"002-0170-019-03","name":"Bay Street 03","status":"active","site_id":"68f10dd9-7d01-4e60-a843-7df5b4dd7a7d","location":{"type":"Point","coordinates":[-122.292193,37.832903]},"completion_date":"2017-01-06T00:00:00.000Z","meters":[{"oem_id":"000300000505","oem":"ekm","position":"left","level":"L2"}],"street_address":"5616 Bay St","city":"Emeryville","state":"CA","zip_code":94608,"public":true},{"id":"318fb2fa-a92e-45c4-bd8b-f3b7a1843259","lin":"002-0170-019-04","name":"Bay Street 04","status":"active","site_id":"68f10dd9-7d01-4e60-a843-7df5b4dd7a7d","location":{"type":"Point","coordinates":[-122.291898,37.83292]},"completion_date":"2017-01-06T00:00:00.000Z","meters":[{"oem_id":"000300000683","oem":"ekm","position":"left","level":"L2"}],"street_address":"5616 Bay St","city":"Emeryville","state":"CA","zip_code":94608,"public":true},{"id":"f05efcdf-0e3d-47c0-aa7c-ea92a1ba2f6d","lin":"002-0175-034-01","name":"The Marketplace KRC 01","status":"active","site_id":"4aa14966-9228-457b-bd9c-e48251600276","location":{"type":"Point","coordinates":[-122.018245,37.322084]},"completion_date":"2016-09-23T00:00:00.000Z","meters":[{"oem_id":"000000017412","oem":"ekm","position":"right","level":"L2"},{"oem_id":"000000020310","oem":"ekm","position":"left","level":"L2"}],"street_address":"19732 Stevens Creek Blvd","city":"Cupertino","state":"CA","zip_code":95014,"public":true},{"id":"2a42f845-64ab-428d-a0c5-9cf1fa792014","lin":"002-0175-034-02","name":"The Marketplace KRC 02","status":"active","site_id":"4aa14966-9228-457b-bd9c-e48251600276","location":{"type":"Point","coordinates":[-122.018137,37.322124]},"completion_date":"2016-09-23T00:00:00.000Z","meters":[{"oem_id":"000000017414","oem":"ekm","position":"left","level":"L2"}],"street_address":"19732 Stevens Creek Blvd","city":"Cupertino","state":"CA","zip_code":95014,"public":true},{"id":"395588d3-5352-4cf6-b1dd-14017578af1d","lin":"002-0179-036-03","name":"Solano Town Center 03","status":"active","site_id":"afbb1913-24b4-4e98-9a94-e302e75c871c","location":{"type":"Point","coordinates":[-122.055177,38.261026]},"completion_date":"2017-03-14T00:00:00.000Z","meters":[{"oem_id":"0100081839230637340117025636","oem":"emw","position":"left","level":"L2"}],"street_address":"1350 Travis Blvd.","city":"Fairfield","state":"CA","zip_code":94533,"public":true},{"id":"774c4f2d-9b65-4083-95e3-d94f65b033d0","lin":"002-0179-036-04","name":"Solano Town Center 04","status":"active","site_id":"afbb1913-24b4-4e98-9a94-e302e75c871c","location":{"type":"Point","coordinates":[-122.055102,38.261027]},"completion_date":"2017-03-14T00:00:00.000Z","meters":[{"oem_id":"0100081731491033462417028312","oem":"emw","position":"left","level":"L2"}],"street_address":"1350 Travis Blvd.","city":"Fairfield","state":"CA","zip_code":94533,"public":true},{"id":"a4e4a808-c086-4897-8d8a-70d52d1f945c","lin":"002-0189-039-01","name":"Community Center Garage 01","status":"active","site_id":"35dbeb77-79f3-4f19-8edf-1021dbce3f60","location":{"type":"Point","coordinates":[-122.393822,37.768296]},"completion_date":"2017-05-03T00:00:00.000Z","meters":[{"oem_id":"000300000085","oem":"ekm","position":"left","level":"L2"}],"street_address":"1625 Owens St.","city":"San Francisco","state":"CA","zip_code":94158,"public":true},{"id":"30b24757-2a14-4f75-b675-866f74e26a4f","lin":"002-0189-039-02","name":"Community Center Garage 02","status":"active","site_id":"35dbeb77-79f3-4f19-8edf-1021dbce3f60","location":{"type":"Point","coordinates":[-122.393728,37.768302]},"completion_date":"2017-05-03T00:00:00.000Z","meters":[{"oem_id":"000300000501","oem":"ekm","position":"left","level":"L2"}],"street_address":"1625 Owens St.","city":"San Francisco","state":"CA","zip_code":94158,"public":true},{"id":"135253dd-8799-412a-a911-f3039188dc38","lin":"002-0190-039-01","name":"Owens Street Garage 01","status":"active","site_id":"08357eb8-cda4-4897-8a4d-2f6ffad2bfa6","location":{"type":"Point","coordinates":[-122.392253,37.765952]},"completion_date":"2017-01-11T00:00:00.000Z","meters":[{"oem_id":"000300000704","oem":"ekm","position":"left","level":"L2"}],"street_address":"1835 Owen St.","city":"San Francisco","state":"CA","zip_code":94158,"public":true},{"id":"1b7ce581-0bf0-4424-a266-572cdd058802","lin":"002-0190-039-02","name":"Owens Street Garage 02","status":"active","site_id":"08357eb8-cda4-4897-8a4d-2f6ffad2bfa6","location":{"type":"Point","coordinates":[-122.392256,37.765982]},"completion_date":"2017-01-11T00:00:00.000Z","meters":[{"oem_id":"000300000101","oem":"ekm","position":"left","level":"L2"}],"street_address":"1835 Owen St.","city":"San Francisco","state":"CA","zip_code":94158,"public":true},{"id":"ae731c2e-3d66-4619-804e-699f2eaf173c","lin":"002-0191-039-01","name":"Third Street Garage 01","status":"active","site_id":"a9980f8d-6e55-48ec-858b-6b23e512dd84","location":{"type":"Point","coordinates":[-122.38978,37.768038]},"completion_date":"2017-01-11T00:00:00.000Z","meters":[{"oem_id":"000010003415","oem":"ekm","position":"left","level":"L2"}],"street_address":"1650 3rd St.","city":"San Francisco","state":"CA","zip_code":94158,"public":true},{"id":"535bcd75-2913-459f-a6fc-3e8271f97bbf","lin":"002-0191-039-02","name":"Third Street Garage 02","status":"active","site_id":"a9980f8d-6e55-48ec-858b-6b23e512dd84","location":{"type":"Point","coordinates":[-122.389643,37.768054]},"completion_date":"2017-01-11T00:00:00.000Z","meters":[{"oem_id":"000010003405","oem":"ekm","position":"left","level":"L2"}],"street_address":"1650 3rd St.","city":"San Francisco","state":"CA","zip_code":94158,"public":true},{"id":"6f2329cf-8bfb-493e-a969-860844ef9e6f","lin":"002-0200-041-01","name":"Bayfair Center 01","status":"active","site_id":"1543a3c8-f589-44f2-a81f-7d4927e5b766","location":{"type":"Point","coordinates":[-122.126286,37.701665]},"completion_date":"2018-03-15T00:00:00.000Z","meters":[{"oem_id":"0816000902040438496317240902","oem":"emw","position":"left","level":"L2"}],"street_address":"15555 E 14th Street","city":"San Leandro","state":"CA","zip_code":94578,"public":true},{"id":"bfb5eddf-0b94-4713-b85c-810d0fb42924","lin":"002-0200-041-02","name":"Bayfair Center 02","status":"active","site_id":"1543a3c8-f589-44f2-a81f-7d4927e5b766","location":{"type":"Point","coordinates":[-122.126358,37.701589]},"completion_date":"2018-03-15T00:00:00.000Z","meters":[{"oem_id":"0816000902040455847217247602","oem":"emw","position":"left","level":"L2"}],"street_address":"15555 E 14th Street","city":"San Leandro","state":"CA","zip_code":94578,"public":true},{"id":"bca39fd7-0c55-4bd3-adc5-d2d50522f813","lin":"002-0204-042-01","name":"O.co Coliseum & Oracle Arena 01","status":"active","site_id":"4f3a7bef-d70b-44c8-8b0d-052fd66ec43a","location":{"type":"Point","coordinates":[-122.203075,37.752115]},"completion_date":"2017-06-26T00:00:00.000Z","meters":[{"oem_id":"0100081559490637340117023022","oem":"emw","position":"left","level":"L2"}],"street_address":"7000 Coliseum Way","city":"Oakland","state":"CA","zip_code":94621,"public":true},{"id":"2306f700-e57a-4aa0-9247-6e1dde62c817","lin":"002-0204-042-02","name":"O.co Coliseum & Oracle Arena 02","status":"active","site_id":"4f3a7bef-d70b-44c8-8b0d-052fd66ec43a","location":{"type":"Point","coordinates":[-122.203319,37.752015]},"completion_date":"2017-06-26T00:00:00.000Z","meters":[{"oem_id":"0100081835081033462317024188","oem":"emw","position":"left","level":"L2"}],"street_address":"7000 Coliseum Way","city":"Oakland","state":"CA","zip_code":94621,"public":true},{"id":"47e069e7-f0fd-4986-a457-7637e0a5e2b9","lin":"002-0205-043-01","name":"Serramonte Center 01","status":"active","site_id":"308c8bdb-8944-459f-8386-919d264bdc59","location":{"type":"Point","coordinates":[-122.469972,37.671308]},"completion_date":"2017-10-27T00:00:00.000Z","meters":[{"oem_id":"000010005084","oem":"ekm","position":"left","level":"L2"}],"street_address":"3 Serramonte Center","city":"Daly City","state":"CA","zip_code":94015,"public":true},{"id":"9325882a-f1e3-48df-92bc-180573f1ce37","lin":"002-0205-043-02","name":"Serramonte Center 02","status":"active","site_id":"308c8bdb-8944-459f-8386-919d264bdc59","location":{"type":"Point","coordinates":[-122.469652,37.671431]},"completion_date":"2017-10-27T00:00:00.000Z","meters":[{"oem_id":"0100081431070437351716023590","oem":"emw","position":"left","level":"L2"}],"street_address":"3 Serramonte Center","city":"Daly City","state":"CA","zip_code":94015,"public":true},{"id":"07daaadb-9c45-43bb-9ef7-51e48395d56d","lin":"002-0205-043-03","name":"Serramonte Center 03","status":"active","site_id":"e9720fd7-a42b-47ea-91c4-33d9f18121e0","location":{"type":"Point","coordinates":[-122.472594,37.671255]},"completion_date":"2017-10-27T00:00:00.000Z","meters":[{"oem_id":"000010004021","oem":"ekm","position":"left","level":"L2"},{"oem_id":"000010004023","oem":"ekm","position":"right","level":"L2"}],"street_address":"3 Serramonte Center","city":"Daly City","state":"CA","zip_code":94015,"public":true},{"id":"cea2f6f7-b94a-44f4-b6bc-243d42ca7f04","lin":"002-0205-043-04","name":"Serramonte Center 04","status":"active","site_id":"e9720fd7-a42b-47ea-91c4-33d9f18121e0","location":{"type":"Point","coordinates":[-122.472601,37.671216]},"completion_date":"2017-10-27T00:00:00.000Z","meters":[{"oem_id":"000010004197","oem":"ekm","position":"left","level":"L2"},{"oem_id":"000010004198","oem":"ekm","position":"right","level":"L2"}],"street_address":"3 Serramonte Center","city":"Daly City","state":"CA","zip_code":94015,"public":true},{"id":"ab970102-152f-4771-acaf-c3d82409ccae","lin":"002-0205-043-05","name":"Serramonte Center 05","status":"active","site_id":"dba6446f-dbd4-432c-bbad-2d5a0de48eab","location":{"type":"Point","coordinates":[-122.471627,37.673469]},"completion_date":"2017-10-27T00:00:00.000Z","meters":[{"oem_id":"0100081647260637342817027003","oem":"emw","position":"left","level":"L2"},{"oem_id":"0100081629510637342817023241","oem":"emw","position":"right","level":"L2"}],"street_address":"3 Serramonte Center","city":"Daly City","state":"CA","zip_code":94015,"public":true},{"id":"fe9cbbf4-e187-4925-b59c-4e96fe6aa0ec","lin":"002-0205-043-06","name":"Serramonte Center 06","status":"active","site_id":"dba6446f-dbd4-432c-bbad-2d5a0de48eab","location":{"type":"Point","coordinates":[-122.471638,37.673401]},"completion_date":"2017-10-27T00:00:00.000Z","meters":[{"oem_id":"0100081359210637342517021425","oem":"emw","position":"right","level":"L2"},{"oem_id":"0817011000010444911018249997","oem":"emw","position":"left","level":"L2"}],"street_address":"3 Serramonte Center","city":"Daly City","state":"CA","zip_code":94015,"public":true},{"id":"81a288fb-ba90-444d-9a18-4c1217b69a28","lin":"002-0253-388-01","name":"Delta Shores 01","status":"active","site_id":"50d231cc-4807-4e18-8928-e97fe449be1b","location":{"type":"Point","coordinates":[-121.492176,38.462321]},"completion_date":"2017-11-22T00:00:00.000Z","meters":[{"oem_id":"0100081234060437351916025750","oem":"emw","position":"left","level":"L2"}],"street_address":"I-5 and Beach Lake Road","city":"Sacramento","state":"CA","zip_code":95823,"public":true},{"id":"780f165a-e4c4-4ddb-b971-d5137b64a752","lin":"002-0253-388-02","name":"Delta Shores 02","status":"active","site_id":"07289560-d6da-4e98-a966-d46a5587f0c2","location":{"type":"Point","coordinates":[-121.492273,38.463942]},"completion_date":"2017-11-22T00:00:00.000Z","meters":[{"oem_id":"0100081728001333570517027055","oem":"emw","position":"left","level":"L2"}],"street_address":"I-5 and Beach Lake Road","city":"Sacramento","state":"CA","zip_code":95823,"public":true},{"id":"222b343a-1def-4ad0-872f-0f485035c44c","lin":"002-0253-388-03","name":"Delta Shores 03","status":"active","site_id":"07289560-d6da-4e98-a966-d46a5587f0c2","location":{"type":"Point","coordinates":[-121.49252,38.463999]},"completion_date":"2017-11-22T00:00:00.000Z","meters":[{"oem_id":"000000015179","oem":"ekm","position":"left","level":"L2"}],"street_address":"I-5 and Beach Lake Road","city":"Sacramento","state":"CA","zip_code":95823,"public":true},{"id":"f3c83d43-280c-45e3-ab4b-c30f0f20e353","lin":"002-0428-345-01","name":"The Streets of Brentwood 01","status":"active","site_id":"3c443695-9084-4cce-b63f-78a57eb29858","location":{"type":"Point","coordinates":[-121.738837,37.945848]},"completion_date":"2017-11-30T00:00:00.000Z","meters":[{"oem_id":"0100081556130637342717021596","oem":"emw","position":"left","level":"L2"}],"street_address":"2455 Sand Creek Rd","city":"Brentwood","state":"CA","zip_code":94513,"public":true},{"id":"f87132b4-91ab-4685-853c-0c2d34eaa3b6","lin":"002-0428-345-02","name":"The Streets of Brentwood 02","status":"active","site_id":"3c443695-9084-4cce-b63f-78a57eb29858","location":{"type":"Point","coordinates":[-121.738821,37.945671]},"completion_date":"2017-11-30T00:00:00.000Z","meters":[{"oem_id":"0100081241080437351816029993","oem":"emw","position":"left","level":"L2"}],"street_address":"2455 Sand Creek Rd","city":"Brentwood","state":"CA","zip_code":94513,"public":true},{"id":"13ab5419-7dd4-4f2e-9049-72d7a7c57011","lin":"002-0429-345-03","name":"The Streets of Brentwood 03","status":"active","site_id":"c3e167ec-100f-4520-8665-2db8f0098bbd","location":{"type":"Point","coordinates":[-121.735305,37.944066]},"completion_date":"2017-11-30T00:00:00.000Z","meters":[{"oem_id":"0100080948250437352016027136","oem":"emw","position":"left","level":"L2"}],"street_address":"2455 Sand Creek Rd","city":"Brentwood","state":"CA","zip_code":94513,"public":true},{"id":"bc32ac58-c7a8-4d55-abd4-e12067ee1dc7","lin":"002-0429-345-04","name":"The Streets of Brentwood 04","status":"active","site_id":"c3e167ec-100f-4520-8665-2db8f0098bbd","location":{"type":"Point","coordinates":[-121.73531,37.944]},"completion_date":"2017-11-30T00:00:00.000Z","meters":[{"oem_id":"0100081311560437351916026461","oem":"emw","position":"left","level":"L2"}],"street_address":"2455 Sand Creek Rd","city":"Brentwood","state":"CA","zip_code":94513,"public":true},{"id":"204b96f4-ceea-48c5-9159-8fb4fbe4d23c","lin":"002-0574-046-00","name":"Volta HQ King Street 01","status":"active","site_id":"f61078cb-cb91-42c8-aaff-73b5c8d8fd39","location":{"type":"Point","coordinates":[-95.705223,37.226582]},"completion_date":"2014-01-30T00:00:00.000Z","meters":[],"street_address":"144A King St","city":"San Francisco","state":"ca","zip_code":94107,"public":false},{"id":"0c06d751-3464-44b4-8256-31377517e524","lin":"002-0580-047-01","name":"The Veranda 01","status":"active","site_id":"54b33f47-dcb0-4d47-950b-6603dd1fc6d9","location":{"type":"Point","coordinates":[-122.058707,37.973741]},"completion_date":"2018-01-26T00:00:00.000Z","meters":[{"oem_id":"0816000902040461796217248901","oem":"emw","position":"left","level":"L2"}],"street_address":"2001 Diamond Boulevard","city":"Concord","state":"CA","zip_code":94520,"public":true},{"id":"a4f71e42-7595-4fd2-a72e-188eedd729f2","lin":"002-0580-047-02","name":"The Veranda 02","status":"active","site_id":"54b33f47-dcb0-4d47-950b-6603dd1fc6d9","location":{"type":"Point","coordinates":[-122.0586,37.973798]},"completion_date":"2018-01-26T00:00:00.000Z","meters":[{"oem_id":"0816000902040444264217248901","oem":"emw","position":"left","level":"L2"}],"street_address":"2001 Diamond Boulevard","city":"Concord","state":"CA","zip_code":94520,"public":true},{"id":"fa423941-d5f9-49cb-9557-f2715c69b89c","lin":"002-0582-019-03","name":"Bayfair Center 03","status":"active","site_id":"91dc8bed-6867-4079-a94c-8c8e2c336fb8","location":{"type":"Point","coordinates":[-122.125299,37.701877]},"completion_date":"2018-03-15T00:00:00.000Z","meters":[{"oem_id":"0816000902040451929018241902","oem":"emw","position":"left","level":"L2"}],"street_address":"15555 E 14th Street","city":"San Leandro","state":"CA","zip_code":94578,"public":true},{"id":"8c060f74-93e7-4b5d-9a63-abf1cbfa34e1","lin":"002-0582-019-04","name":"Bayfair Center 04","status":"active","site_id":"91dc8bed-6867-4079-a94c-8c8e2c336fb8","location":{"type":"Point","coordinates":[-122.125732,37.702136]},"completion_date":"2018-03-15T00:00:00.000Z","meters":[{"oem_id":"0816000902040435837317240902","oem":"emw","position":"left","level":"L2"}],"street_address":"15555 E 14th Street","city":"San Leandro","state":"CA","zip_code":94578,"public":true},{"id":"ea25bbdf-6cee-4c7e-84a3-878383e2cf5e","lin":"002-0588-005-05","name":"Stonestown Galleria 05","status":"active","site_id":"b1e47431-c408-48de-9cb3-f54f9225710d","location":{"type":"Point","coordinates":[-122.476357,37.727785]},"completion_date":"2018-03-23T00:00:00.000Z","meters":[{"oem_id":"0816000902040445078317244702","oem":"emw","position":"left","level":"L2"}],"street_address":"3251 20th Ave","city":"San Francisco","state":"CA","zip_code":94132,"public":true},{"id":"53fa1e07-2935-40de-982b-34306bb1761b","lin":"002-0588-005-06","name":"Stonestown Galleria 06","status":"active","site_id":"b1e47431-c408-48de-9cb3-f54f9225710d","location":{"type":"Point","coordinates":[-122.476339,37.727891]},"completion_date":"2018-03-23T00:00:00.000Z","meters":[{"oem_id":"0816000902040438404317244702","oem":"emw","position":"left","level":"L2"}],"street_address":"3251 20th Ave","city":"San Francisco","state":"CA","zip_code":94132,"public":true},{"id":"11bccc09-89eb-4b6f-bd17-ad633e9bfa38","lin":"002-0603-1037-01","name":"Somersville Towne Center 01","status":"active","site_id":"c8a8aec2-e28d-475a-a075-6b820496a1b0","location":{"type":"Point","coordinates":[-121.842436,38.002412]},"completion_date":"2017-09-30T00:00:00.000Z","meters":[{"oem_id":"0100081138490437351916027861","oem":"emw","position":"left","level":"L2"}],"street_address":"2550 Somersville Rd","city":"Antioch","state":"CA","zip_code":94509,"public":true},{"id":"4ef94779-4dcc-4ac6-8ba5-b336af296340","lin":"002-0603-1037-02","name":"Somersville Towne Center 02","status":"active","site_id":"c8a8aec2-e28d-475a-a075-6b820496a1b0","location":{"type":"Point","coordinates":[-121.842718,38.002642]},"completion_date":"2017-09-30T00:00:00.000Z","meters":[{"oem_id":"0817011001000459393018249902","oem":"emw","position":"left","level":"L2"}],"street_address":"2550 Somersville Rd","city":"Antioch","state":"CA","zip_code":94509,"public":true},{"id":"2f992fe0-f607-4d52-b511-68582d09ac7f","lin":"002-0611-009-01","name":"Ridge at Creekside 01","status":"under construction","site_id":"5942e106-9b07-43ed-8e6f-c2a85e503e0d","location":{"type":"Point","coordinates":[-121.263321,38.770296]},"completion_date":"2018-08-10T00:00:00.000Z","meters":[],"street_address":"1180-1256 Galleria Boulevard","city":"Roseville","state":"CA","zip_code":95678,"public":false},{"id":"a9fd01e7-16f6-4d06-9ac4-2b7d30573cff","lin":"002-0611-009-02","name":"Ridge at Creekside 02","status":"under construction","site_id":"5942e106-9b07-43ed-8e6f-c2a85e503e0d","location":{"type":"Point","coordinates":[-121.263342,38.770248]},"completion_date":"2018-08-10T00:00:00.000Z","meters":[],"street_address":"1180-1256 Galleria Boulevard","city":"Roseville","state":"CA","zip_code":95678,"public":false},{"id":"5fbf6511-9a12-489d-a5cf-38bc4fe0b20a","lin":"002-0617-014-01","name":"West Park Plaza 01","status":"under construction","site_id":"3313a1ef-0e2a-44e3-a0d4-0d22452db6b4","location":{"type":"Point","coordinates":[-121.95053,37.3004]},"completion_date":"2018-08-31T00:00:00.000Z","meters":[],"street_address":"S Winchester Blvd","city":"San Jose","state":"CA","zip_code":95128,"public":false},{"id":"8868a1cb-c5d7-4914-a25f-9957d61fdd91","lin":"002-0617-014-02","name":"West Park Plaza 02","status":"under construction","site_id":"3313a1ef-0e2a-44e3-a0d4-0d22452db6b4","location":{"type":"Point","coordinates":[-121.950484,37.300287]},"completion_date":"2018-08-31T00:00:00.000Z","meters":[],"street_address":"S Winchester Blvd","city":"San Jose","state":"CA","zip_code":95128,"public":false},{"id":"c87554a9-3be3-4953-8112-3a4450a1f5c3","lin":"002-0617-014-03","name":"West Park Plaza 03","status":"under construction","site_id":"3313a1ef-0e2a-44e3-a0d4-0d22452db6b4","location":{"type":"Point","coordinates":[-121.951495,37.300244]},"completion_date":"2018-08-31T00:00:00.000Z","meters":[],"street_address":"S Winchester Blvd","city":"San Jose","state":"CA","zip_code":95128,"public":false},{"id":"4a773d5e-6bc4-4bc5-9113-812353d8b786","lin":"002-0625-039-01","name":"UCSF Parnassus 01","status":"active","site_id":"54caff48-5895-49ba-b78b-f7612648916b","location":{"type":"Point","coordinates":[-122.458221,37.764099]},"completion_date":"2017-11-22T00:00:00.000Z","meters":[{"oem_id":"0100081721021333570917028515","oem":"emw","position":"left","level":"L2"}],"street_address":"500 Parnassus Ave.","city":"San Francisco","state":"CA","zip_code":94103,"public":true},{"id":"7e87de61-eae4-4cfa-98be-9a182019855f","lin":"002-0625-039-02","name":"UCSF Parnassus 02","status":"active","site_id":"54caff48-5895-49ba-b78b-f7612648916b","location":{"type":"Point","coordinates":[-122.458705,37.763935]},"completion_date":"2017-11-22T00:00:00.000Z","meters":[{"oem_id":"0100081333240437351916026344","oem":"emw","position":"left","level":"L2"}],"street_address":"500 Parnassus Ave.","city":"San Francisco","state":"CA","zip_code":94103,"public":true},{"id":"d8ead8d4-c9ca-4a86-9fb0-1e84e0d73bdf","lin":"002-0637-012-03","name":"The Veranda 03","status":"active","site_id":"b55a1afd-8403-4dd7-a094-be4d148f2131","location":{"type":"Point","coordinates":[-122.059536008,37.972554294]},"completion_date":"2018-02-28T00:00:00.000Z","meters":[{"oem_id":"0816000902040463838217249601","oem":"emw","position":"left","level":"L2"}],"street_address":"2001 Diamond Boulevard","city":"Concord","state":"CA","zip_code":94520,"public":true},{"id":"610727db-16c0-44e2-b0f8-3752bdbb8a2d","lin":"002-0637-012-04","name":"The Veranda 04","status":"active","site_id":"b55a1afd-8403-4dd7-a094-be4d148f2131","location":{"type":"Point","coordinates":[-122.059498131,37.972381786]},"completion_date":"2018-02-28T00:00:00.000Z","meters":[{"oem_id":"0816000902040459986217247602","oem":"emw","position":"left","level":"L2"}],"street_address":"2001 Diamond Boulevard","city":"Concord","state":"CA","zip_code":94520,"public":true},{"id":"6c653140-bd9c-4880-b690-53aaded0fae4","lin":"002-0637-012-05","name":"The Veranda 05","status":"active","site_id":"9078ce36-73c6-4c08-b665-55d666676ab6","location":{"type":"Point","coordinates":[-122.058791,37.972115]},"completion_date":"2018-02-28T00:00:00.000Z","meters":[{"oem_id":"0816001000010441871018247002","oem":"emw","position":"left","level":"L2"}],"street_address":"2001 Diamond Boulevard","city":"Concord","state":"CA","zip_code":94520,"public":true},{"id":"fc215802-e3b6-43ec-bad8-ab6a9e08e0a7","lin":"002-0637-012-06","name":"The Veranda 06","status":"active","site_id":"9078ce36-73c6-4c08-b665-55d666676ab6","location":{"type":"Point","coordinates":[-122.058791,37.972115]},"completion_date":"2018-02-28T00:00:00.000Z","meters":[{"oem_id":"0100081742201333570917029566","oem":"emw","position":"left","level":"L2"}],"street_address":"2001 Diamond Boulevard","city":"Concord","state":"CA","zip_code":94520,"public":true},{"id":"0bb92982-f362-4d0e-a745-afd0d50e3000","lin":"002-0637-012-07","name":"The Veranda 07","status":"active","site_id":"9b19d5e9-c371-4533-b883-07a8358c6155","location":{"type":"Point","coordinates":[-122.058033426,37.972254399]},"completion_date":"2018-02-28T00:00:00.000Z","meters":[{"oem_id":"0816000902040460776217249801","oem":"emw","position":"left","level":"L2"}],"street_address":"2001 Diamond Boulevard","city":"Concord","state":"CA","zip_code":94520,"public":true},{"id":"3be62a4d-bbf0-493f-99a4-20acb8242dd0","lin":"002-0637-012-08","name":"The Veranda 08","status":"active","site_id":"9b19d5e9-c371-4533-b883-07a8358c6155","location":{"type":"Point","coordinates":[-122.058339015,37.972521913]},"completion_date":"2018-02-28T00:00:00.000Z","meters":[{"oem_id":"0816000902040440387217249902","oem":"emw","position":"left","level":"L2"}],"street_address":"2001 Diamond Boulevard","city":"Concord","state":"CA","zip_code":94520,"public":true},{"id":"953edeff-24f5-41fe-af7e-83fe02ae990f","lin":"002-0642-299-01","name":"Rocky Ridge Town Center 01","status":"active","site_id":"95801529-d787-41ec-a9bb-850a7965b330","location":{"type":"Point","coordinates":[-121.251663,38.743534]},"completion_date":"2018-07-31T00:00:00.000Z","meters":[{"oem_id":"0817011001000456387118240002","oem":"emw","position":"left","level":"L2"}],"street_address":"2030 Douglas Boulevard","city":"Roseville","state":"CA","zip_code":95661,"public":true},{"id":"d485e36c-4a6e-45a1-951b-ac5b799f9563","lin":"002-0642-299-02","name":"Rocky Ridge Town Center 02","status":"active","site_id":"95801529-d787-41ec-a9bb-850a7965b330","location":{"type":"Point","coordinates":[-121.251802,38.743527]},"completion_date":"2018-07-31T00:00:00.000Z","meters":[{"oem_id":"0816000902040450979317246702","oem":"emw","position":"left","level":"L2"}],"street_address":"2030 Douglas Boulevard","city":"Roseville","state":"CA","zip_code":95661,"public":true},{"id":"81f5df4f-fd0a-4e7a-9ac7-9747829c1443","lin":"002-0653-0862-01","name":"Citrus Marketplace 01","status":"active","site_id":"a1a38e45-920d-43eb-92a7-cc0ccd6dbe6e","location":{"type":"Point","coordinates":[-122.014235,37.93075]},"completion_date":"2018-06-20T00:00:00.000Z","meters":[{"oem_id":"0817011001000444958118240202","oem":"emw","position":"left","level":"L2"}],"street_address":"2290 Oak Grove Rd","city":"Walnut Creek","state":"CA","zip_code":94598,"public":true},{"id":"23ac8274-9a8c-473e-bec9-c7e413b1dfab","lin":"002-0653-0862-02","name":"Citrus Marketplace 02","status":"active","site_id":"a1a38e45-920d-43eb-92a7-cc0ccd6dbe6e","location":{"type":"Point","coordinates":[-122.014187,37.930684]},"completion_date":"2018-06-20T00:00:00.000Z","meters":[{"oem_id":"0817011001000452059118240202","oem":"emw","position":"left","level":"L2"}],"street_address":"2290 Oak Grove Rd","city":"Walnut Creek","state":"CA","zip_code":94598,"public":true},{"id":"10af2bd7-6aba-41c7-982b-a27940ef34af","lin":"002-0654-0862-01","name":"San Marin Plaza 01","status":"needs service","site_id":"9568ee6c-28c7-4ca5-b149-c023073f2d9f","location":{"type":"Point","coordinates":[-122.603463,38.122405]},"completion_date":"2018-05-07T00:00:00.000Z","meters":[{"oem_id":"0816000902040437270317240401","oem":"emw","position":"left","level":"L2"}],"street_address":"199 San Marin Dr","city":"Novato","state":"CA","zip_code":94945,"public":true},{"id":"8efdb26a-4033-40ac-9059-7678656c8e62","lin":"002-0654-0862-02","name":"San Marin Plaza 02","status":"needs service","site_id":"9568ee6c-28c7-4ca5-b149-c023073f2d9f","location":{"type":"Point","coordinates":[-122.603266,38.122418]},"completion_date":"2018-05-07T00:00:00.000Z","meters":[{"oem_id":"0817010902950447043117018202","oem":"emw","position":"left","level":"L2"}],"street_address":"199 San Marin Dr","city":"Novato","state":"CA","zip_code":94945,"public":true},{"id":"744a2b3c-6d6c-4f93-9707-bee48c0284f3","lin":"002-0661-418-01","name":"Rose Pavilion 01","status":"under construction","site_id":"089e2640-5bd6-401e-9403-8f86d0f5765d","location":{"type":"Point","coordinates":[-121.874274,37.698618]},"completion_date":"2018-08-31T00:00:00.000Z","meters":[],"street_address":"4225 Rosewood Dr.","city":"Pleasanton","state":"CA","zip_code":94588,"public":false},{"id":"541a6639-1dc0-441c-a118-e851f277f930","lin":"002-0661-418-02","name":"Rose Pavilion 02","status":"under construction","site_id":"089e2640-5bd6-401e-9403-8f86d0f5765d","location":{"type":"Point","coordinates":[-121.874343,37.698615]},"completion_date":"2018-08-31T00:00:00.000Z","meters":[],"street_address":"4225 Rosewood Dr.","city":"Pleasanton","state":"CA","zip_code":94588,"public":false},{"id":"7f1bd782-8b54-4413-8aba-2b24f0f0e7c3","lin":"002-0672-005-07","name":"Stonestown Galleria 07","status":"active","site_id":"b1e47431-c408-48de-9cb3-f54f9225710d","location":{"type":"Point","coordinates":[-122.476323,37.727952]},"completion_date":"2018-03-15T00:00:00.000Z","meters":[{"oem_id":"namt53_hu1_1217_004","oem":"abb","position":"left","level":"L3"}],"street_address":"3251 20th Ave","city":"San Francisco","state":"CA","zip_code":94132,"public":true},{"id":"abe4681a-359f-43b8-a0ad-00809ad5beb4","lin":"002-0674-014-01","name":"Willows Shopping Center 01","status":"active","site_id":"6f6db23e-83f8-4b72-a28c-2e1674bc74e6","location":{"type":"Point","coordinates":[-122.056921,37.968327]},"completion_date":"2018-05-08T00:00:00.000Z","meters":[{"oem_id":"0816000902040456350317246702","oem":"emw","position":"left","level":"L2"}],"street_address":"1975 Diamond Boulevard","city":"Concord","state":"CA","zip_code":94520,"public":true},{"id":"a1b69d8b-b62a-46c9-8cf6-ce6f1dd1e5b4","lin":"002-0674-014-02","name":"Willows Shopping Center 02","status":"active","site_id":"6f6db23e-83f8-4b72-a28c-2e1674bc74e6","location":{"type":"Point","coordinates":[-122.056885,37.968275]},"completion_date":"2018-05-08T00:00:00.000Z","meters":[{"oem_id":"0816000902040449586317246702","oem":"emw","position":"left","level":"L2"}],"street_address":"1975 Diamond Boulevard","city":"Concord","state":"CA","zip_code":94520,"public":true},{"id":"cfa023b6-8b47-4dcc-a81b-893492510c7d","lin":"002-0678-0718-01","name":"Letterman Digital Arts Center 01","status":"under construction","site_id":"98197509-aa39-4466-a131-870b8b8b1fc7","location":{"type":"Point","coordinates":[-122.448826,37.798811]},"completion_date":"2018-08-31T00:00:00.000Z","meters":[],"street_address":"1 Letterman Drive","city":"San Francisco","state":"CA","zip_code":94129,"public":false},{"id":"071d17ac-c0be-4f50-9325-5efe01c4f3db","lin":"002-0678-0718-02","name":"Letterman Digital Arts Center 02","status":"under construction","site_id":"98197509-aa39-4466-a131-870b8b8b1fc7","location":{"type":"Point","coordinates":[-95.705223,37.226582]},"completion_date":"2018-08-31T00:00:00.000Z","meters":[],"street_address":"1 Letterman Drive","city":"San Francisco","state":"CA","zip_code":94129,"public":false},{"id":"9fd81895-b70f-416e-8c2a-3ba735ea4e2f","lin":"002-0678-0718-03","name":"Letterman Digital Arts Center 03","status":"under construction","site_id":"98197509-aa39-4466-a131-870b8b8b1fc7","location":{"type":"Point","coordinates":[-95.705223,37.226582]},"completion_date":"2018-08-31T00:00:00.000Z","meters":[],"street_address":"1 Letterman Drive","city":"San Francisco","state":"CA","zip_code":94129,"public":false},{"id":"ce74e8f6-feb3-4e34-986e-b3c4d60f8ab3","lin":"002-0678-0718-04","name":"Letterman Digital Arts Center 04","status":"under construction","site_id":"98197509-aa39-4466-a131-870b8b8b1fc7","location":{"type":"Point","coordinates":[-95.705223,37.226582]},"completion_date":"2018-08-31T00:00:00.000Z","meters":[],"street_address":"1 Letterman Drive","city":"San Francisco","state":"CA","zip_code":94129,"public":false},{"id":"ff28f753-83e6-4f76-89a2-d1eccba46105","lin":"003-0018-005-01","name":"Northridge Fashion Center 01","status":"active","site_id":"8882efbb-5e13-48aa-b478-d0bcad2f5703","location":{"type":"Point","coordinates":[-118.5547985,34.2384217]},"completion_date":"2013-12-15T00:00:00.000Z","meters":[{"oem_id":"000000015160","oem":"ekm","position":"left","level":"L2"}],"street_address":"9301 Tampa Avenue","city":"Northridge","state":"CA","zip_code":91324,"public":true},{"id":"fd4e7707-4bf9-4835-89dd-7c668abd5e5c","lin":"003-0018-005-02","name":"Northridge Fashion Center 02","status":"needs service","site_id":"8882efbb-5e13-48aa-b478-d0bcad2f5703","location":{"type":"Point","coordinates":[-118.5547891,34.2385636]},"completion_date":"2013-12-15T00:00:00.000Z","meters":[{"oem_id":"000000015152","oem":"ekm","position":"left","level":"L2"}],"street_address":"9301 Tampa Avenue","city":"Northridge","state":"CA","zip_code":91324,"public":true},{"id":"1a09f5d9-2e7c-4adf-828d-6944c524205f","lin":"003-0018-005-03","name":"Northridge Fashion Center 03","status":"active","site_id":"8882efbb-5e13-48aa-b478-d0bcad2f5703","location":{"type":"Point","coordinates":[-118.556546,34.2411324]},"completion_date":"2015-10-21T00:00:00.000Z","meters":[{"oem_id":"000000016939","oem":"ekm","position":"left","level":"L2"}],"street_address":"9301 Tampa Avenue","city":"Northridge","state":"CA","zip_code":91324,"public":true},{"id":"c53b49c1-6ba9-4656-a684-a19fbf3f7304","lin":"003-0018-005-04","name":"Northridge Fashion Center 04","status":"active","site_id":"8882efbb-5e13-48aa-b478-d0bcad2f5703","location":{"type":"Point","coordinates":[-118.5567096,34.2411335]},"completion_date":"2015-10-21T00:00:00.000Z","meters":[{"oem_id":"000000016464","oem":"ekm","position":"left","level":"L2"}],"street_address":"9301 Tampa Avenue","city":"Northridge","state":"CA","zip_code":91324,"public":true},{"id":"f9c89b94-b294-4afd-8bb2-680268b4e2e8","lin":"003-0018-005-05","name":"Northridge Fashion Center 05","status":"active","site_id":"8882efbb-5e13-48aa-b478-d0bcad2f5703","location":{"type":"Point","coordinates":[-118.555217,34.240611]},"completion_date":"2017-04-17T00:00:00.000Z","meters":[{"oem_id":"000010005105","oem":"ekm","position":"left","level":"L2"}],"street_address":"9301 Tampa Avenue","city":"Northridge","state":"CA","zip_code":91324,"public":true},{"id":"4b80389b-4cee-4336-ba6f-86f65c08b26a","lin":"003-0018-005-06","name":"Northridge Fashion Center 06","status":"active","site_id":"8882efbb-5e13-48aa-b478-d0bcad2f5703","location":{"type":"Point","coordinates":[-118.555223,34.240764]},"completion_date":"2017-04-17T00:00:00.000Z","meters":[{"oem_id":"000010005101","oem":"ekm","position":"left","level":"L2"}],"street_address":"9301 Tampa Avenue","city":"Northridge","state":"CA","zip_code":91324,"public":true},{"id":"7a0b51e4-f2a4-40eb-9b49-65843dcdd29c","lin":"003-0022-011-01","name":"Whole Foods Market Arroyo 01","status":"needs service","site_id":"e03ca235-a6ea-4f47-af8c-1a644d1a6b75","location":{"type":"Point","coordinates":[-118.1477103,34.137783]},"completion_date":"2014-02-18T00:00:00.000Z","meters":[{"oem_id":"0100081705580148501317024841","oem":"emw","position":"left","level":"L2"}],"street_address":"465 S. Arroyo Pkwy","city":"Pasadena","state":"CA","zip_code":91105,"public":true},{"id":"ff54ac36-86cc-49ef-93bd-ccc83ad3b1dd","lin":"003-0022-011-02","name":"Whole Foods Market Arroyo 02","status":"active","site_id":"e03ca235-a6ea-4f47-af8c-1a644d1a6b75","location":{"type":"Point","coordinates":[-118.1478846,34.1376542]},"completion_date":"2014-02-18T00:00:00.000Z","meters":[{"oem_id":"0100081632000148501117029033","oem":"emw","position":"left","level":"L2"}],"street_address":"465 S. Arroyo Pkwy","city":"Pasadena","state":"CA","zip_code":91105,"public":true},{"id":"b5bb66f4-16e1-4328-b4f4-f7a7da303f9c","lin":"003-0022-011-03","name":"Whole Foods Market Arroyo 03","status":"active","site_id":"7794f300-a171-4193-ac72-b0131a41e453","location":{"type":"Point","coordinates":[-118.1477167,34.1375201]},"completion_date":"2015-01-15T00:00:00.000Z","meters":[{"oem_id":"000010006972","oem":"ekm","position":"left","level":"L2"}],"street_address":"465 S. Arroyo Pkwy","city":"Pasadena","state":"CA","zip_code":91105,"public":true},{"id":"33152540-1a02-4213-a9f8-fcc2cacbf2eb","lin":"003-0022-011-04","name":"Whole Foods Market Arroyo 04","status":"active","site_id":"7794f300-a171-4193-ac72-b0131a41e453","location":{"type":"Point","coordinates":[-118.1477559,34.1377253]},"completion_date":"2015-01-15T00:00:00.000Z","meters":[{"oem_id":"0100081145200148501417024564","oem":"emw","position":"left","level":"L2"}],"street_address":"465 S. Arroyo Pkwy","city":"Pasadena","state":"CA","zip_code":91105,"public":true},{"id":"beddafe8-7690-4b20-bea4-93afed673f9c","lin":"003-0023-011-01","name":"Whole Foods Market Glendale 01","status":"needs service","site_id":"31e5341f-f28b-41ef-b755-df10353598c8","location":{"type":"Point","coordinates":[-118.2455586,34.151252]},"completion_date":"2014-03-17T00:00:00.000Z","meters":[{"oem_id":"000000015516","oem":"ekm","position":"left","level":"L2"}],"street_address":"331 N. Glendale Ave","city":"Glendale","state":"CA","zip_code":91206,"public":true},{"id":"aae1946f-4ff6-44a2-9829-018bd39d21ff","lin":"003-0023-011-02","name":"Whole Foods Market Glendale 02","status":"active","site_id":"31e5341f-f28b-41ef-b755-df10353598c8","location":{"type":"Point","coordinates":[-118.2455519,34.1512909]},"completion_date":"2014-03-17T00:00:00.000Z","meters":[{"oem_id":"000000018388","oem":"ekm","position":"left","level":"L2"}],"street_address":"331 N. Glendale Ave","city":"Glendale","state":"CA","zip_code":91206,"public":true},{"id":"f4e86674-dcf2-4b46-be1c-d8873ee95562","lin":"003-0023-011-03","name":"Whole Foods Market Glendale 03","status":"active","site_id":"31e5341f-f28b-41ef-b755-df10353598c8","location":{"type":"Point","coordinates":[-118.2461071,34.1512975]},"completion_date":"2014-03-17T00:00:00.000Z","meters":[{"oem_id":"000000015180","oem":"ekm","position":"left","level":"L2"}],"street_address":"331 N. Glendale Ave","city":"Glendale","state":"CA","zip_code":91206,"public":true},{"id":"6b7d7501-e317-48b8-8df7-cd6a5946be2f","lin":"003-0026-005-01","name":"Glendale Galleria 01","status":"active","site_id":"63e97944-69db-4936-864b-1efffca0d360","location":{"type":"Point","coordinates":[-118.2565087,34.1456904]},"completion_date":"2014-05-15T00:00:00.000Z","meters":[{"oem_id":"000000018308","oem":"ekm","position":"left","level":"L2"}],"street_address":"100 West Broadway, Suite 700","city":"Glendale","state":"CA","zip_code":91210,"public":true},{"id":"e7917206-6c2a-42f1-b15f-65060cf401a6","lin":"003-0026-005-02","name":"Glendale Galleria 02","status":"active","site_id":"63e97944-69db-4936-864b-1efffca0d360","location":{"type":"Point","coordinates":[-118.256506,34.1456371]},"completion_date":"2014-05-15T00:00:00.000Z","meters":[{"oem_id":"000000018302","oem":"ekm","position":"left","level":"L2"}],"street_address":"100 West Broadway, Suite 700","city":"Glendale","state":"CA","zip_code":91210,"public":true},{"id":"e4e2955c-f8e0-411f-90f0-bb78968004db","lin":"003-0026-005-03","name":"Glendale Galleria 03","status":"active","site_id":"63e97944-69db-4936-864b-1efffca0d360","location":{"type":"Point","coordinates":[-118.2565436,34.1456926]},"completion_date":"2014-05-15T00:00:00.000Z","meters":[{"oem_id":"000000017952","oem":"ekm","position":"left","level":"L2"}],"street_address":"100 West Broadway, Suite 700","city":"Glendale","state":"CA","zip_code":91210,"public":true},{"id":"11649f35-877e-4796-b144-f55f2e545cba","lin":"003-0026-005-04","name":"Glendale Galleria 04","status":"active","site_id":"63e97944-69db-4936-864b-1efffca0d360","location":{"type":"Point","coordinates":[-118.2565382,34.1456394]},"completion_date":"2014-05-15T00:00:00.000Z","meters":[{"oem_id":"000000017955","oem":"ekm","position":"left","level":"L2"}],"street_address":"100 West Broadway, Suite 700","city":"Glendale","state":"CA","zip_code":91210,"public":true},{"id":"3ae06647-7af7-4984-9b11-1b0a82be57d9","lin":"003-0026-005-05","name":"Glendale Galleria 05","status":"active","site_id":"46010175-a6ed-433a-9789-6ce6748ade48","location":{"type":"Point","coordinates":[-118.259506,34.14306]},"completion_date":"2018-05-31T00:00:00.000Z","meters":[{"oem_id":"000000017357","oem":"ekm","position":"left","level":"L2"}],"street_address":"100 West Broadway, Suite 700","city":"Glendale","state":"CA","zip_code":91210,"public":true},{"id":"977c6dc2-f219-4e3c-8ee4-f9992ddce365","lin":"003-0026-005-06","name":"Glendale Galleria 06","status":"active","site_id":"46010175-a6ed-433a-9789-6ce6748ade48","location":{"type":"Point","coordinates":[-118.259581,34.143267]},"completion_date":"2018-05-31T00:00:00.000Z","meters":[{"oem_id":"000300001019","oem":"ekm","position":"left","level":"L2"}],"street_address":"100 West Broadway, Suite 700","city":"Glendale","state":"CA","zip_code":91210,"public":true},{"id":"d0b4aac0-8c40-41c3-acfc-edb253f0de2b","lin":"003-0026-005-07","name":"Glendale Galleria 07","status":"active","site_id":"e95307b9-daff-4137-972b-81cb972c491f","location":{"type":"Point","coordinates":[-118.259903,34.145166]},"completion_date":"2018-05-31T00:00:00.000Z","meters":[{"oem_id":"000000019834","oem":"ekm","position":"right","level":"L2"},{"oem_id":"000000017162","oem":"ekm","position":"left","level":"L2"}],"street_address":"100 West Broadway, Suite 700","city":"Glendale","state":"CA","zip_code":91210,"public":true},{"id":"79e23891-74e9-4259-93e1-bdc83f8c5025","lin":"003-0026-005-08","name":"Glendale Galleria 08","status":"active","site_id":"bff7afa2-95d9-4cd8-a7fd-3e1de6ad4343","location":{"type":"Point","coordinates":[-118.25986,34.145902]},"completion_date":"2018-05-31T00:00:00.000Z","meters":[{"oem_id":"000000017979","oem":"ekm","position":"left","level":"L2"},{"oem_id":"000000016955","oem":"ekm","position":"right","level":"L2"}],"street_address":"100 West Broadway, Suite 700","city":"Glendale","state":"CA","zip_code":91210,"public":true},{"id":"8ce6ffbc-f9af-442b-beb5-16beb91e3ef3","lin":"003-0026-005-09","name":"Glendale Galleria 09","status":"active","site_id":"bff7afa2-95d9-4cd8-a7fd-3e1de6ad4343","location":{"type":"Point","coordinates":[-118.259577,34.146499]},"completion_date":"2018-05-31T00:00:00.000Z","meters":[{"oem_id":"000000017102","oem":"ekm","position":"left","level":"L2"}],"street_address":"100 West Broadway, Suite 700","city":"Glendale","state":"CA","zip_code":91210,"public":true},{"id":"a6b371d5-3a69-4f58-952a-1523268bf2a4","lin":"003-0029-011-01","name":"Whole Foods Market Westwood 01","status":"active","site_id":"b34f5ad0-2233-456f-97f1-ee7abc29208d","location":{"type":"Point","coordinates":[-118.4473573,34.0614547]},"completion_date":"2014-05-30T00:00:00.000Z","meters":[{"oem_id":"0817011000020449380018249502","oem":"emw","position":"left","level":"L2"}],"street_address":"1050 Gayley Ave","city":"Los Angeles","state":"CA","zip_code":90024,"public":true},{"id":"b9f7d05d-9dcb-44ae-88e1-48c9c249882b","lin":"003-0029-011-02","name":"Whole Foods Market Westwood 02","status":"active","site_id":"b34f5ad0-2233-456f-97f1-ee7abc29208d","location":{"type":"Point","coordinates":[-118.4470595,34.061578]},"completion_date":"2014-05-30T00:00:00.000Z","meters":[{"oem_id":"0817011001000460501018249102","oem":"emw","position":"left","level":"L2"}],"street_address":"1050 Gayley Ave","city":"Los Angeles","state":"CA","zip_code":90024,"public":true},{"id":"66db5493-e264-4e2a-a8d8-c91e3334f0ac","lin":"003-0029-011-03","name":"Whole Foods Market Westwood 03","status":"active","site_id":"b34f5ad0-2233-456f-97f1-ee7abc29208d","location":{"type":"Point","coordinates":[-118.447155,34.061471]},"completion_date":"2017-08-31T00:00:00.000Z","meters":[{"oem_id":"0816000902020453368217012001","oem":"emw","position":"left","level":"L2"}],"street_address":"1050 Gayley Ave","city":"Los Angeles","state":"CA","zip_code":90024,"public":true},{"id":"21c7fa05-516f-4b70-8284-92837eb9f257","lin":"003-0029-011-04","name":"Whole Foods Market Westwood 04","status":"active","site_id":"b34f5ad0-2233-456f-97f1-ee7abc29208d","location":{"type":"Point","coordinates":[-118.447061,34.061581]},"completion_date":"2017-08-31T00:00:00.000Z","meters":[{"oem_id":"0100081705121033462317022282","oem":"emw","position":"left","level":"L2"}],"street_address":"1050 Gayley Ave","city":"Los Angeles","state":"CA","zip_code":90024,"public":true},{"id":"6d529a30-b84f-43c8-b255-a704f4a8d2d6","lin":"003-0032-011-01","name":"Whole Foods Market Wilshire 01","status":"active","site_id":"5274e2dd-412f-45a5-b57d-7f37e110f7a0","location":{"type":"Point","coordinates":[-118.4966522,34.0197756]},"completion_date":"2014-09-02T00:00:00.000Z","meters":[{"oem_id":"0100081733260148500617029599","oem":"emw","position":"left","level":"L2"}],"street_address":"500 Wilshire Blvd","city":"Santa Monica","state":"CA","zip_code":90401,"public":false},{"id":"2ac08eb8-97ee-40a4-9111-108f443b6245","lin":"003-0032-011-02","name":"Whole Foods Market Wilshire 02","status":"active","site_id":"5274e2dd-412f-45a5-b57d-7f37e110f7a0","location":{"type":"Point","coordinates":[-118.4966992,34.0194856]},"completion_date":"2014-09-02T00:00:00.000Z","meters":[{"oem_id":"0100081525030148501117022622","oem":"emw","position":"left","level":"L2"}],"street_address":"500 Wilshire Blvd","city":"Santa Monica","state":"CA","zip_code":90401,"public":false},{"id":"29f49afe-e506-43af-b053-27b6b55b65e7","lin":"003-0034-014-01","name":"Marina Shores 01","status":"needs service","site_id":"027f7615-72c1-45cf-a218-129c8e295b7a","location":{"type":"Point","coordinates":[-118.109246,33.7546213]},"completion_date":"2016-01-08T00:00:00.000Z","meters":[{"oem_id":"000000018314","oem":"ekm","position":"left","level":"L2"}],"street_address":"6550 Pacific Coast HIghway","city":"Long Beach","state":"CA","zip_code":90803,"public":true},{"id":"5e68cc85-64d4-4ed8-8b3d-42f366e895f1","lin":"003-0034-014-02","name":"Marina Shores 02","status":"active","site_id":"027f7615-72c1-45cf-a218-129c8e295b7a","location":{"type":"Point","coordinates":[-118.1092836,33.7546013]},"completion_date":"2016-01-08T00:00:00.000Z","meters":[{"oem_id":"000000017978","oem":"ekm","position":"left","level":"L2"}],"street_address":"6550 Pacific Coast HIghway","city":"Long Beach","state":"CA","zip_code":90803,"public":true},{"id":"9260431c-45fd-4858-9f32-c3b2d19a7281","lin":"003-0035-014-01","name":"Valencia Crossroads 01","status":"needs service","site_id":"e0edbf81-cffe-4407-b6b4-953299ed3fed","location":{"type":"Point","coordinates":[-118.5562241,34.4121586]},"completion_date":"2014-11-15T00:00:00.000Z","meters":[{"oem_id":"0100081705150148500417025798","oem":"emw","position":"left","level":"L2"}],"street_address":"24130 Valencia Blvd","city":"Valencia","state":"CA","zip_code":91355,"public":true},{"id":"a081cc99-9936-4f74-8199-2a6d3d7fa66a","lin":"003-0035-014-02","name":"Valencia Crossroads 02","status":"active","site_id":"e0edbf81-cffe-4407-b6b4-953299ed3fed","location":{"type":"Point","coordinates":[-118.5561115,34.4120258]},"completion_date":"2014-11-15T00:00:00.000Z","meters":[{"oem_id":"0100081540091333503017028823","oem":"emw","position":"left","level":"L2"}],"street_address":"24130 Valencia Blvd","city":"Valencia","state":"CA","zip_code":91355,"public":true},{"id":"373ee071-0fe1-4252-9eda-9e0399d43159","lin":"003-0037-015-01","name":"Del Amo Fashion Center 01","status":"active","site_id":"35c8099b-18bc-4255-91ea-e6045716bb6f","location":{"type":"Point","coordinates":[-118.3512765,33.8322356]},"completion_date":"2015-10-01T00:00:00.000Z","meters":[{"oem_id":"000000016476","oem":"ekm","position":"left","level":"L2"}],"street_address":"3525 West Carson Street","city":"Torrance","state":"CA","zip_code":90503,"public":true},{"id":"bf425013-373b-4803-808d-7115f45c044b","lin":"003-0037-015-02","name":"Del Amo Fashion Center 02","status":"active","site_id":"8a3f6bac-aa6c-4194-8911-a953a4bb0751","location":{"type":"Point","coordinates":[-118.3513543,33.8323849]},"completion_date":"2015-10-01T00:00:00.000Z","meters":[{"oem_id":"000000016442","oem":"ekm","position":"left","level":"L2"}],"street_address":"3525 West Carson Street","city":"Torrance","state":"CA","zip_code":90503,"public":true},{"id":"7ea7f9ab-e888-477e-acdd-c081a2a4294e","lin":"003-0037-015-03","name":"Del Amo Fashion Center 03","status":"active","site_id":"8a3f6bac-aa6c-4194-8911-a953a4bb0751","location":{"type":"Point","coordinates":[-118.3513623,33.8324963]},"completion_date":"2015-10-01T00:00:00.000Z","meters":[{"oem_id":"000000016479","oem":"ekm","position":"left","level":"L2"}],"street_address":"3525 West Carson Street","city":"Torrance","state":"CA","zip_code":90503,"public":true},{"id":"6dc864a7-0e8f-489b-b24f-6078b1f3ecd2","lin":"003-0038-015-01","name":"The Shops On Lake Avenue 01","status":"active","site_id":"8896daf4-da08-49e7-8cb1-e981150df895","location":{"type":"Point","coordinates":[-118.1335428,34.1393415]},"completion_date":"2015-03-31T00:00:00.000Z","meters":[{"oem_id":"000000017420","oem":"ekm","position":"left","level":"L2"}],"street_address":"401 S. Lake Ave","city":"Pasadena","state":"CA","zip_code":91101,"public":true},{"id":"b7e5549d-1070-4ebe-b54a-a93dd1402d47","lin":"003-0038-015-02","name":"The Shops On Lake Avenue 02","status":"active","site_id":"8896daf4-da08-49e7-8cb1-e981150df895","location":{"type":"Point","coordinates":[-118.1336635,34.139377]},"completion_date":"2015-03-31T00:00:00.000Z","meters":[{"oem_id":"000000017415","oem":"ekm","position":"left","level":"L2"}],"street_address":"401 S. Lake Ave","city":"Pasadena","state":"CA","zip_code":91101,"public":true},{"id":"893e43d7-b7be-4f9b-97c0-9f64c2535725","lin":"003-0039-015-01","name":"Westfield Fashion Square 01","status":"active","site_id":"edb24219-3c4c-48c6-8ecb-b8ce1c91d781","location":{"type":"Point","coordinates":[-118.4344518,34.1568643]},"completion_date":"2014-10-20T00:00:00.000Z","meters":[{"oem_id":"000010000798","oem":"ekm","position":"left","level":"L2"}],"street_address":"14006 Riverside Drive","city":"Sherman Oaks","state":"CA","zip_code":91423,"public":true},{"id":"73e3c862-f1b2-4910-ab4b-57936078c81a","lin":"003-0039-015-02","name":"Westfield Fashion Square 02","status":"active","site_id":"edb24219-3c4c-48c6-8ecb-b8ce1c91d781","location":{"type":"Point","coordinates":[-118.4344572,34.1568288]},"completion_date":"2014-10-20T00:00:00.000Z","meters":[{"oem_id":"000010000698","oem":"ekm","position":"left","level":"L2"}],"street_address":"14006 Riverside Drive","city":"Sherman Oaks","state":"CA","zip_code":91423,"public":true},{"id":"e36ae6ec-2319-4c1e-9c69-f97726727c47","lin":"003-0041-015-01","name":"Los Cerritos Center 01","status":"needs service","site_id":"12b0a3e0-af2f-41dd-9893-70d8c5ba3b92","location":{"type":"Point","coordinates":[-118.0933218,33.8595146]},"completion_date":"2015-03-30T00:00:00.000Z","meters":[{"oem_id":"000000014798","oem":"ekm","position":"left","level":"L2"}],"street_address":"500 Los Cerritos Center","city":"Cerritos","state":"CA","zip_code":90701,"public":true},{"id":"eb3a7aa5-bf24-4279-ab8c-253bb7b0b9f1","lin":"003-0041-015-02","name":"Los Cerritos Center 02","status":"active","site_id":"12b0a3e0-af2f-41dd-9893-70d8c5ba3b92","location":{"type":"Point","coordinates":[-118.0933727,33.8595113]},"completion_date":"2015-03-30T00:00:00.000Z","meters":[{"oem_id":"000000017382","oem":"ekm","position":"left","level":"L2"}],"street_address":"500 Los Cerritos Center","city":"Cerritos","state":"CA","zip_code":90701,"public":true},{"id":"179df7c8-567c-454f-a7d7-b2eb2a621706","lin":"003-0042-015-01","name":"The Oaks 01","status":"active","site_id":"954fc9a5-2428-418b-9c1d-52d6e0f832d6","location":{"type":"Point","coordinates":[-118.8863906,34.1842567]},"completion_date":"2015-10-01T00:00:00.000Z","meters":[{"oem_id":"000000016439","oem":"ekm","position":"left","level":"L2"}],"street_address":"350 West Hillcrest Drive","city":"Thousand Oaks","state":"CA","zip_code":91360,"public":true},{"id":"5e19bbd7-d77b-4a1e-acf1-8a6aa432ba1b","lin":"003-0042-015-02","name":"The Oaks 02","status":"needs service","site_id":"954fc9a5-2428-418b-9c1d-52d6e0f832d6","location":{"type":"Point","coordinates":[-118.8865046,34.1843832]},"completion_date":"2015-10-01T00:00:00.000Z","meters":[{"oem_id":"000000016459","oem":"ekm","position":"left","level":"L2"}],"street_address":"350 West Hillcrest Drive","city":"Thousand Oaks","state":"CA","zip_code":91360,"public":true},{"id":"5922a26d-7944-44d1-be4e-0036edc09f0f","lin":"003-0042-015-03","name":"The Oaks 03","status":"needs service","site_id":"aecb16c9-704c-48e0-95d4-4d3b3bc8a727","location":{"type":"Point","coordinates":[-118.8862096,34.1841358]},"completion_date":"2015-10-01T00:00:00.000Z","meters":[{"oem_id":"000000014256","oem":"ekm","position":"left","level":"L2"}],"street_address":"350 West Hillcrest Drive","city":"Thousand Oaks","state":"CA","zip_code":91360,"public":true},{"id":"b3a8bcf7-6fbc-421c-9391-82a08d59fa05","lin":"003-0043-015-04","name":"The Oaks 04","status":"active","site_id":"ee9f0246-aa8d-46e3-923f-44563614e488","location":{"type":"Point","coordinates":[-118.890137,34.185832]},"completion_date":"2017-08-31T00:00:00.000Z","meters":[{"oem_id":"0100081705431333503117022043","oem":"emw","position":"left","level":"L2"}],"street_address":"350 West Hillcrest Drive","city":"Thousand Oaks","state":"CA","zip_code":91360,"public":true},{"id":"95dec2e4-0da1-4cd1-b228-45f9c9e98300","lin":"003-0043-015-05","name":"The Oaks 05","status":"active","site_id":"ee9f0246-aa8d-46e3-923f-44563614e488","location":{"type":"Point","coordinates":[-118.890063,34.18588]},"completion_date":"2017-08-31T00:00:00.000Z","meters":[{"oem_id":"0100081703380148500617021224","oem":"emw","position":"left","level":"L2"}],"street_address":"350 West Hillcrest Drive","city":"Thousand Oaks","state":"CA","zip_code":91360,"public":true},{"id":"eea2956f-15b6-4e4d-8d98-f118d9ed5d43","lin":"003-0044-015-01","name":"Montebello Town Center 01","status":"active","site_id":"a5b8ebc4-c265-4621-adf4-8e555642089e","location":{"type":"Point","coordinates":[-118.0818231,34.0354717]},"completion_date":"2015-06-18T00:00:00.000Z","meters":[{"oem_id":"000000016967","oem":"ekm","position":"left","level":"L2"}],"street_address":"2000 Montebello Town Center","city":"Montebello","state":"CA","zip_code":90640,"public":true},